Roll (deg),Pitch (deg),Heading (deg),Yaw (deg),Yaw Rate (deg/s),Velocity (m/s),Steering Angle (deg),Relative Altitude (m),Altitude AMSL (m),Altitude Tuning,Altitude Tuning Setpoint,X-Track Error (m),Travelled Distance (m),Run Time,Distance To Home (m),Mission Index,Heading To Next WP (deg),Heading To Home (deg),Distance To GCS (m),Throttle (%),Hobbs,Clock Time,Clock Date,GPS Latitude,GPS Longitude,GPS MGRS,GPS HDOP,GPS VDOP,GPS Course,Satellite Locks,Satellite Count,Longitudinal Position (m),Lateral Position (m),Vertical Position (m),Longitudinal Velocity (m/s),Absolute Longitudinal Velocity (m/s),Lateral Velocity (m/s),Absolute Lateral Velocity (m/s),Vertical Velocity (m/s),Temperature (F),Longitudinal Vibration,Lateral Vibration,Vertical Vibration,Data Type,EKF Detector
-7.2,-4.4,32,-148,0,11.6,0,0.9,762.8,0.12,0,0,17.7,0:00:00,,7,,,,0,0:00:00,,,32.2314954,-110.9079631,12SWA 08671 66099,3.2,4.1,351,3,6,75.2,-5.4,-0.7,11.6,11.6,-2,2,0,108.5,0,0,0,0,0
-6.9,-4.1,32,-148,0,11.3,0,0.9,762.9,0.14,0,0,21.8,0:00:01,67.1,7,,176,,0,0:00:00,10:55:59,5/24/2022,32.2314895,-110.9079642,12SWA 08671 66098,3.3,4.6,351,3,5,77.3,-6.1,-0.8,11.2,11.2,-2.1,2.1,0,108.5,0,0,0,0,0
-6.4,-3.5,32,-148,0,10.4,0,0.9,762.9,0.11,0,0,21.8,0:00:02,67.1,7,,176,,0,0:00:00,10:56:00,5/24/2022,32.2314895,-110.9079642,12SWA 08671 66098,3.3,4.6,351,3,5,77.3,-6.1,-0.8,11.2,11.2,-2.1,2.1,0,108.5,0,0,0,0,0
-5.8,-2.7,32,-148,0,9.1,0,1,763,0.28,0,0,27,0:00:03,72.1,7,,174,,0,0:00:00,10:56:01,5/24/2022,32.2314667,-110.9079696,12SWA 08670 66096,3.3,4.6,351,3,5,82.2,-8.2,-0.9,8.9,8.9,-2,2,-0.1,108.46,0,0,0,0,0
-3.9,-0.5,31,-149,-1,4.2,0,1.2,763.2,0.47,0,0,38,0:00:04,61.2,7,,173,,0,0:00:00,10:56:02,5/24/2022,32.2314667,-110.9079696,12SWA 08670 66096,3.3,4.6,351,3,5,71.1,-8.1,-1.1,3.9,3.9,-1.4,1.4,-0.2,108.46,0,0,0,0,0
-2.8,0.7,31,-149,0,1.5,0,1.2,763.2,0.74,0,0,38,0:00:05,61.2,7,,173,,0,0:00:00,10:56:03,5/24/2022,32.2314146,-110.9079727,12SWA 08670 66090,3.2,4.1,351,3,6,71.1,-8.1,-1.1,3.9,3.9,-1.4,1.4,-0.2,108.41,0,0,0,0,0
-2.3,1.2,31,-149,0,0.9,0,1.5,763.5,0.73,0,0,52.4,0:00:06,46.8,7,,173,,0,0:00:00,10:56:04,5/24/2022,32.2314146,-110.9079727,12SWA 08670 66090,3.2,4.1,351,3,6,56.8,-7,-1.4,-0.6,0.6,-0.8,0.8,-0.2,108.41,0,0,0,0,0
-2.1,1.5,31,-149,0,1.5,0,1.5,763.5,0.6,0,0,52.4,0:00:07,46.8,7,,173,,0,0:00:00,10:56:05,5/24/2022,32.2314146,-110.9079727,12SWA 08670 66090,3.2,4.1,351,3,6,56.8,-7,-1.4,-0.6,0.6,-0.8,0.8,-0.2,108.41,0,0,0,0,0
-1.9,1.6,31,-149,0,2.3,36.20945682,1.2,763.1,0.41,0.41,0.41,58.1,0:00:08,41.1,7,,172,,13,0:00:00,10:56:06,5/24/2022,32.2313728,-110.907974,12SWA 08670 66085,3.3,4.6,351,3,5,51,-7,-1,-2.4,2.4,-0.5,0.5,0,108.37,0,0,0,0,0
-2,2.9,31,-149,0,1.6,36.20945682,1.2,763.1,0.17,0.41,0.41,58.1,0:00:09,41.1,7,,172,,53,0:00:00,10:56:07,5/24/2022,32.2313728,-110.907974,12SWA 08670 66085,3.3,4.6,351,3,5,51,-7,-1,-2.4,2.4,-0.5,0.5,0,108.37,0,0,0,0,0
-1.8,4,43,-137,12,2.1,-21.97759521,0.9,762.9,0.15,0.15,-0.226,62.3,0:00:10,37.4,7,,174,,0,0:00:00,10:56:08,5/24/2022,32.2313641,-110.9079508,12SWA 08672 66084,3.3,4.6,7.2,3,5,47.7,-4.6,-0.8,-1.8,1.8,1.5,1.5,0.1,108.36,2.5,2.5,5.1,0,0
-2.2,4,329,149,286,1.8,-21.97759521,0.9,762.9,0.09,0.15,-0.226,62.3,0:00:11,37.5,7,,172,,60,0:00:00,10:56:09,5/24/2022,32.2313641,-110.9079508,12SWA 08672 66084,3.3,4.6,7.2,3,5,47.7,-4.6,-0.8,-1.8,1.8,1.5,1.5,0.1,108.36,2.5,2.5,5.1,0,0
7.3,1.7,264,84,-65,4,-21.97759521,0.9,762.9,0.15,0.15,-0.226,62.3,0:00:12,37.5,7,,172,,25,0:00:00,10:56:10,5/24/2022,32.2313641,-110.9079508,12SWA 08672 66084,3.3,4.6,7.2,3,5,47.6,-6.4,-0.8,-0.3,0.3,-1.6,1.6,-0.2,108.36,5.1,3.8,7.9,0,0
4.1,-1.3,204,24,-60,3.2,-39.76529287,0.8,762.8,0.01,0.15,-0.466,66.5,0:00:13,35.9,7,,168,,21,0:00:00,10:56:11,5/24/2022,32.2313239,-110.907992,12SWA 08668 66080,1.4,2.1,255.2,3,6,45.6,-8.2,-0.7,-2.6,2.6,-0.2,0.2,0,108.3,0.9,0.6,1.2,0,0
6.8,0.2,189,9,-15,1.7,-39.76529287,0.8,762.8,0.07,0.15,-0.466,66.5,0:00:14,35.9,7,,168,,15,0:00:00,10:56:12,5/24/2022,32.2313239,-110.907992,12SWA 08668 66080,1.4,2.1,255.2,3,6,45.6,-8.2,-0.7,-2.6,2.6,-0.2,0.2,0,108.3,0.9,0.6,1.2,0,0
6.8,0.9,189,9,0,1.5,86.31454188,0.7,762.7,0.04,0.04,8.694,73.6,0:00:15,28.8,7,,168,,20,0:00:00,10:56:13,5/24/2022,32.2312157,-110.9079695,12SWA 08670 66068,1.4,2.1,216.8,3,6,38.6,-6.8,-0.6,-1.1,1.1,-0.8,0.8,0,108.19,0,0,0,0,0
7,1.6,190,10,1,1.2,86.31454188,0.7,762.7,-0.19,0.04,8.694,73.6,0:00:16,28.8,7,,168,,16,0:00:00,10:56:14,5/24/2022,32.2312157,-110.9079695,12SWA 08670 66068,1.4,2.1,216.8,3,6,38.6,-6.8,-0.6,-1.1,1.1,-0.8,0.8,0,108.19,0,0,0,0,0
6.8,2.9,190,10,0,1.1,86.31454188,0.5,762.4,-0.26,0.04,8.694,80.4,0:00:17,22,7,,167,,10,0:00:00,10:56:15,5/24/2022,32.2312157,-110.9079695,12SWA 08670 66068,1.4,2.1,216.8,3,6,31.9,-5.7,-0.4,-0.3,0.3,-1,1,0.1,108.19,0,0,0,0,0
6.3,3.5,189,9,-1,1.1,88.11650256,0.5,762.4,-0.15,-0.26,17.029,80.4,0:00:18,22,7,,167,,27,0:00:00,10:56:16,5/24/2022,32.2311739,-110.9079536,12SWA 08672 66063,1.1,2.1,330.9,3,7,31.9,-5.7,-0.4,-0.3,0.3,-1,1,0.1,108.12,0,0,0,0,0
4.8,3.5,208,28,19,1.4,88.11650256,0.7,762.7,-0.06,-0.26,17.029,85.3,0:00:19,17.2,7,,165,,22,0:00:00,10:56:17,5/24/2022,32.2311739,-110.9079536,12SWA 08672 66063,1.1,2.1,330.9,3,7,27,-5.4,-0.6,-0.2,0.2,-1.2,1.2,0.1,108.12,0.8,0.5,0.6,0,0
4.9,6.2,163,-17,-45,0.8,88.65482468,0.6,762.6,-0.09,-0.09,23.848,90.6,0:00:20,11.9,7,,164,,34,0:00:00,10:56:18,5/24/2022,32.2311371,-110.9079467,12SWA 08673 66059,1.1,2.1,201,3,7,27,-5.4,-0.6,-0.2,0.2,-1.2,1.2,0.1,108.09,0.8,0.5,0.6,0,0
4.2,3.8,106,-74,-57,0.8,88.65482468,0.6,762.6,-0.16,-0.09,23.848,90.6,0:00:21,11.9,7,,164,,33,0:00:00,10:56:19,5/24/2022,32.2311371,-110.9079467,12SWA 08673 66059,1.1,2.1,201,3,7,21.8,-4.3,-0.5,-0.7,0.7,0.3,0.3,0,108.09,3.3,1.5,3.2,0,0
0,0.4,71,-109,-35,1.2,88.65482468,0.5,762.5,-0.2,-0.09,23.848,94.8,0:00:22,9.1,7,,182,,25,0:00:00,10:56:20,5/24/2022,32.2311371,-110.9079467,12SWA 08673 66059,1.1,2.1,201,3,7,19.5,-0.7,-0.4,0.7,0.7,1.1,1.1,0,108.09,2.7,1.8,4.6,0,0
1.3,0.8,53,-127,-18,1,88.86300593,0.6,762.6,-0.11,-0.14,28.216,94.8,0:00:23,8.6,7,,192,,22,15:03:55,10:56:21,5/24/2022,32.2311288,-110.9079031,12SWA 08677 66058,1.1,1.7,74.5,3,8,18.8,1,-0.5,0.5,0.5,0.9,0.9,0.1,108.05,1.2,1.3,3.2,0,0
-1.3,0.1,44,-136,-9,1,88.87464885,0.8,762.8,0.02,0.02,28.508,97.2,0:00:24,8.8,7,,199,,21,15:03:55,10:56:22,5/24/2022,32.2311379,-110.9078928,12SWA 08678 66059,1.1,1.7,45.2,3,8,18.7,2,-0.7,0.6,0.6,0.8,0.8,0,108.01,1.1,0.6,1.3,0,0
-2.9,0,44,-136,0,1.1,88.87183986,0.8,762.8,0.06,0.02,28.437,97.2,0:00:25,9.5,7,,206,,20,15:03:55,10:56:23,5/24/2022,32.2311424,-110.9078873,12SWA 08678 66060,1.1,1.7,45.2,3,8,18.8,2.8,-0.7,0.6,0.6,0.8,0.8,0.1,107.98,1,0.9,1.7,0,0
-1.6,-1.2,41,-139,-3,1,88.86949494,0.8,762.8,0.05,0.06,28.378,99.4,0:00:26,9.8,7,,208,,20,15:03:55,10:56:24,5/24/2022,32.2311466,-110.9078821,12SWA 08679 66060,1.4,1.7,45.2,3,7,19,3.7,-0.7,0.7,0.7,0.7,0.7,0,107.98,1.3,0.6,1.3,0,0
-0.4,1.6,37,-143,-4,0.9,88.86581894,0.7,762.7,-0.04,-0.02,28.286,99.4,0:00:27,10,7,,211,,24,15:03:55,10:56:25,5/24/2022,32.2311487,-110.9078783,12SWA 08679 66060,1.4,1.7,45.2,3,7,19,4.2,-0.6,0.6,0.6,0.7,0.7,0,108,1.5,0.8,1.6,0,0
0.5,2.9,35,-145,-2,1,88.85794784,0.8,762.8,-0.01,0,28.091,99.4,0:00:28,10.5,7,,212,,24,15:03:55,10:56:26,5/24/2022,32.2311554,-110.9078751,12SWA 08679 66061,1.4,1.7,45.2,3,7,19.2,4.7,-0.7,0.7,0.7,0.7,0.7,0,107.94,1.2,0.6,1.5,0,0
0.2,2.9,33,-147,-2,1,88.83797315,0.7,762.7,-0.03,-0.05,27.608,99.4,0:00:29,11,7,,214,,24,15:03:55,10:56:27,5/24/2022,32.2311606,-110.9078688,12SWA 08680 66062,1.4,1.7,45.2,3,7,19.5,5.2,-0.6,0.7,0.7,0.8,0.8,0,107.92,0.9,0.7,1.7,0,0
0.4,3.5,33,-147,0,1,88.82701449,0.9,762.8,0.1,0.03,27.35,101.6,0:00:30,11.9,7,,214,,25,15:03:55,10:56:28,5/24/2022,32.2311645,-110.9078673,12SWA 08680 66062,1.4,1.7,45.2,3,7,20.3,5.7,-0.8,0.8,0.8,0.7,0.7,0,107.92,1.6,0.7,2.9,0,0
1.9,2.8,37,-143,4,1,88.7976566,0.9,762.9,0.12,0.12,26.682,101.6,0:00:31,12.5,7,,214,,25,15:03:55,10:56:29,5/24/2022,32.2311712,-110.9078644,12SWA 08680 66063,1.4,1.7,14.1,3,7,20.8,6,-0.8,0.7,0.7,0.6,0.6,0,107.91,1.5,1,2.3,0,0
-1.7,3.1,39,-141,2,1,88.76943986,0.9,762.9,0.17,0.17,26.07,101.6,0:00:32,13.1,7,,214,,26,15:03:55,10:56:30,5/24/2022,32.2311743,-110.9078618,12SWA 08681 66063,1.4,1.7,14.1,3,7,21.3,6.4,-0.8,0.6,0.6,0.6,0.6,-0.1,107.89,1.7,1,2.9,0,0
-2.6,3,41,-139,2,1,88.74553203,0.9,762.9,0.06,0.12,25.573,101.6,0:00:33,13.9,7,,214,,27,15:03:55,10:56:31,5/24/2022,32.2311834,-110.9078557,12SWA 08681 66064,1.4,1.7,14.1,3,7,22,6.8,-0.8,0.7,0.7,0.6,0.6,0.1,107.89,1.5,0.8,1.6,0,0
0.1,1.7,43,-137,2,0.9,88.70592253,0.8,762.8,0.05,0.02,24.79,104,0:00:34,14.9,7,,215,,29,15:03:55,10:56:32,5/24/2022,32.231193,-110.9078469,12SWA 08682 66065,1.4,1.7,14.1,3,7,22.7,7.5,-0.7,0.7,0.7,0.6,0.6,0,107.87,1.8,1.1,1.9,0,0
-2.1,2.5,46,-134,3,1,88.65892826,0.8,762.8,0.04,0.04,23.921,104,0:00:35,15.8,7,,215,,28,15:03:55,10:56:33,5/24/2022,32.2311967,-110.907844,12SWA 08682 66066,1.4,1.7,14.1,3,7,23.4,8.1,-0.7,0.7,0.7,0.7,0.7,0,107.89,2.1,1,3.1,0,0
1.9,2.8,45,-135,-1,1,88.62872916,0.7,762.7,-0.07,0,23.394,106,0:00:36,16.8,7,,215,,29,15:03:55,10:56:34,5/24/2022,32.231208,-110.9078334,12SWA 08683 66067,1.4,1.7,28.2,3,7,24.1,8.7,-0.6,0.8,0.8,0.7,0.7,0.1,107.87,2.4,1.3,2.7,0,0
-0.1,2.4,46,-134,1,1,88.55604774,0.7,762.7,-0.09,-0.09,22.216,106,0:00:37,17.8,7,,215,,30,15:03:55,10:56:35,5/24/2022,32.231214,-110.90783,12SWA 08684 66068,1.4,1.7,21.2,3,7,25,9.3,-0.6,0.7,0.7,0.6,0.6,0.1,107.83,2.5,2,2.9,0,0
-1.3,2.7,50,-130,4,1.1,88.51667124,0.6,762.6,-0.12,-0.15,21.626,108.6,0:00:38,18.9,7,,216,,26,15:03:55,10:56:36,5/24/2022,32.2312235,-110.9078197,12SWA 08685 66069,1.4,1.7,21.2,3,7,25.8,10,-0.5,0.8,0.8,0.8,0.8,0.1,107.83,3,1.2,2.5,0,0
0.8,1,51,-129,1,1.1,88.43279098,0.7,762.7,-0.07,-0.07,20.468,108.6,0:00:39,20.7,7,,216,,25,15:03:55,10:56:37,5/24/2022,32.2312344,-110.9078083,12SWA 08686 66070,1.4,1.7,21.2,3,7,27.2,11.1,-0.6,0.8,0.8,0.7,0.7,0.2,107.8,2.3,1.2,3.4,0,0
-1.4,2.2,53,-127,2,1,88.34143361,0.7,762.7,-0.09,-0.09,19.34,110.8,0:00:40,21.7,7,,216,,27,15:03:55,10:56:38,5/24/2022,32.2312416,-110.9078018,12SWA 08686 66071,1.4,1.7,20.5,3,7,28,11.8,-0.6,0.7,0.7,0.6,0.6,0.1,107.78,2.2,1,1.8,0,0
2.4,0.9,56,-124,3,1,88.2780773,0.6,762.5,-0.21,-0.18,18.628,110.8,0:00:41,22.8,7,,216,,29,15:03:55,10:56:39,5/24/2022,32.2312511,-110.9077923,12SWA 08687 66072,1.1,1.7,20.5,3,8,28.9,12.4,-0.5,0.7,0.7,0.6,0.6,0.2,107.76,1.9,1.5,4,0,0
-0.2,3.1,56,-124,0,1,88.16117527,0.5,762.4,-0.36,-0.31,17.443,113,0:00:42,23.9,7,,216,,30,15:03:55,10:56:40,5/24/2022,32.2312596,-110.9077805,12SWA 08688 66073,1.1,1.7,20.5,3,8,29.7,13.3,-0.4,0.6,0.6,0.6,0.6,0.1,107.74,2.1,1.2,2.8,0,0
-1.4,0.9,56,-124,0,1.2,88.09356903,0.2,762.1,-0.6,-0.48,16.824,115.3,0:00:43,25.6,7,,217,,27,15:03:55,10:56:41,5/24/2022,32.231263,-110.9077752,12SWA 08689 66073,1.1,1.7,20.5,3,8,30.4,14.2,-0.2,0.7,0.7,0.8,0.8,0.3,107.73,2.2,1.3,2.2,0,0
0,4.4,59,-121,3,1,87.92470533,0,762,-0.77,-0.69,15.454,115.3,0:00:44,26.7,7,,217,,30,15:03:55,10:56:42,5/24/2022,32.2312735,-110.9077651,12SWA 08690 66074,1.1,1.7,20.5,3,8,31.7,15.2,0.1,0.7,0.7,0.6,0.6,0.2,107.71,1.6,1.2,2.3,0,0
-2.3,2.2,61,-119,2,1.1,87.72915774,-0.1,761.9,-0.86,-0.86,14.122,117.5,0:00:45,27.8,7,,217,,29,15:03:55,10:56:43,5/24/2022,32.2312735,-110.9077651,12SWA 08690 66074,1.1,1.7,20.5,3,8,32.5,15.9,0.2,0.8,0.8,0.7,0.7,0.3,107.67,2.2,1.2,2.2,0,0
-2.3,4,62,-118,1,1.1,87.60658521,-0.2,761.8,-1.09,-1,13.398,117.5,0:00:46,28.4,7,,217,,28,15:03:55,10:56:44,5/24/2022,32.2312853,-110.9077523,12SWA 08691 66076,1.1,1.7,35,3,8,33.4,16.8,0.4,0.8,0.8,0.7,0.7,0.2,107.67,1.6,1.1,2.3,0,0
-1.9,1.5,63,-117,1,1,87.37616988,-0.4,761.6,-1.17,-1.18,12.22,120,0:00:47,30.7,7,,218,,29,15:03:55,10:56:45,5/24/2022,32.2313009,-110.9077295,12SWA 08693 66077,1.1,1.7,39.9,3,8,34.2,17.7,0.5,0.7,0.7,0.7,0.7,0.3,107.64,1.9,1.2,3.3,0,0
0.9,2.1,63,-117,0,1.1,87.26788972,-0.3,761.6,-1.12,-1.16,11.735,120,0:00:48,31.9,7,,219,,28,15:03:55,10:56:46,5/24/2022,32.2313054,-110.9077234,12SWA 08694 66078,1.1,1.7,39.9,3,8,35.4,19,0.5,0.9,0.9,0.8,0.8,0.3,107.62,1.3,1.1,1.9,0,0
-1.2,2,62,-118,-1,1.1,86.98777766,-0.3,761.6,-1.1,-1.12,10.642,122.3,0:00:49,33.1,7,,219,,25,15:03:55,10:56:47,5/24/2022,32.2313151,-110.9077124,12SWA 08695 66079,1.1,1.7,39.9,3,8,36.2,19.8,0.4,0.8,0.8,0.8,0.8,0.2,107.6,1.8,0.8,2.2,0,0
-1.7,2.3,65,-115,3,1.1,86.63530245,-0.3,761.7,-1.06,-1.08,9.525,122.3,0:00:50,34.3,7,,219,,26,15:03:55,10:56:48,5/24/2022,32.2313249,-110.9077021,12SWA 08696 66080,1.1,1.7,39.9,3,8,37.1,20.6,0.4,0.8,0.8,0.7,0.7,0.3,107.6,1.3,0.7,1.9,0,0
-1.8,3.7,67,-113,2,0.9,86.49277097,-0.1,761.8,-0.9,-0.96,9.137,124.6,0:00:51,35.4,7,,219,,31,15:03:55,10:56:49,5/24/2022,32.2313297,-110.9076963,12SWA 08696 66081,1.1,1.7,39.9,3,8,37.9,21.4,0.3,0.8,0.8,0.6,0.6,0.2,107.58,1.1,1.4,1.8,0,0
-1.5,2.3,64,-116,-3,1.1,86.17821345,-0.1,761.9,-0.84,-0.85,8.383,126.8,0:00:52,37,7,,220,,28,15:03:55,10:56:50,5/24/2022,32.2313387,-110.9076813,12SWA 08698 66082,1.1,1.7,39.9,3,8,38.9,22.7,0.2,0.8,0.8,0.7,0.7,0.2,107.58,1.8,0.9,2.2,0,0
0.7,1,65,-115,1,1,85.65597752,-0.1,761.9,-0.84,-0.84,7.372,126.8,0:00:53,38.2,7,,220,,28,15:03:55,10:56:51,5/24/2022,32.2313434,-110.907675,12SWA 08698 66082,1.1,1.7,39.9,3,8,39.7,23.6,0.2,0.8,0.8,0.7,0.7,0.3,107.58,1.3,1.2,1.9,0,0
-1.1,2.5,64,-116,-1,1.1,85.38802808,-0.1,761.9,-0.86,-0.84,6.942,129,0:00:54,39.1,7,,220,,30,15:03:55,10:56:52,5/24/2022,32.2313517,-110.9076635,12SWA 08699 66083,1.1,1.7,39.9,3,8,40.3,24.4,0.2,0.7,0.7,0.7,0.7,0.2,107.56,3.1,1,2.9,0,0
5.3,1.3,348,168,284,1.9,85.38802808,-0.1,761.9,-0.86,-0.84,6.942,129,0:00:55,40.1,7,,220,,41,15:03:55,10:56:53,5/24/2022,32.2313598,-110.9076562,12SWA 08700 66084,1.1,1.7,26.6,3,8,41.1,24.8,0.2,1.6,1.6,-0.1,0.1,0.3,107.55,2.1,1.3,1.9,0,0
7,1.4,240,60,-108,1.8,85.38802808,-0.1,761.9,-0.83,-0.84,6.942,129,0:00:56,40,7,,218,,41,15:03:55,10:56:54,5/24/2022,32.2313663,-110.9076599,12SWA 08700 66085,1.1,1.7,321.4,3,8,42,23.6,0.2,0,0,-1.9,1.9,0.3,107.55,1.9,1.8,2.3,0,0
-1.4,3.4,226,46,-14,1.8,85.38802808,0,762,-0.78,-0.84,6.942,129,0:00:57,38.3,7,,218,,25,15:03:55,10:56:55,5/24/2022,32.2313569,-110.9076715,12SWA 08698 66084,1.1,1.7,211.6,3,8,40.6,22.6,0.1,-1.1,1.1,-1.5,1.5,0.1,107.55,1.7,1.5,4,0,0
1.4,2.5,235,55,9,0.4,-33.1674837,0.1,762,-0.6,-0.6,-0.366,131.5,0:00:58,36.9,7,,219,,30,15:03:55,10:56:56,5/24/2022,32.2313437,-110.9076767,12SWA 08698 66082,1.1,1.7,207.9,3,8,39.2,22.1,0,-0.4,0.4,-0.8,0.8,0.2,107.53,0.9,0.9,1.3,0,0
-2.5,0.9,304,124,69,1.3,-53.28912098,0.3,762.3,-0.49,-0.49,-0.751,131.5,0:00:59,36.3,7,,219,,30,15:03:55,10:56:57,5/24/2022,32.2313409,-110.9076806,12SWA 08698 66082,1.1,1.7,207.9,3,8,38.8,21.7,-0.2,0.9,0.9,-0.8,0.8,0.1,107.55,2.8,1.3,3.1,0,0
-2.5,3.3,24,-156,-280,1.1,-65.67810677,0.2,762.2,-0.56,-0.53,-1.239,131.5,0:01:00,37.1,7,,218,,25,15:03:55,10:56:58,5/24/2022,32.2313455,-110.9076893,12SWA 08697 66082,1.1,1.7,281.3,3,8,39.6,21.5,-0.1,1.2,1.2,0.5,0.5,0.2,107.51,1.2,0.8,2.3,0,0
-4.3,2.6,44,-136,20,1,-62.67889005,0.2,762.1,-0.65,-0.65,-1.084,131.5,0:01:01,37.4,7,,218,,27,15:03:55,10:56:59,5/24/2022,32.2313484,-110.9076811,12SWA 08698 66083,1.1,1.7,281.3,3,8,39.9,22.1,-0.1,0.6,0.6,0.9,0.9,0.2,107.51,1.4,1.2,1.6,0,0
-0.7,2,41,-139,-3,1,-61.39735855,0.1,762,-0.71,-0.7,-1.027,131.5,0:01:02,38.4,7,,219,,28,15:03:55,10:57:00,5/24/2022,32.2313506,-110.907678,12SWA 08698 66083,1.1,1.7,281.3,3,8,40.3,23.2,0,0.5,0.5,0.9,0.9,0.2,107.49,0.9,1,1.8,0,0
1.5,3.5,35,-145,-6,1,-59.48176932,0,762,-0.76,-0.73,-0.95,133.8,0:01:03,39.2,7,,219,,30,15:03:55,10:57:01,5/24/2022,32.2313571,-110.9076713,12SWA 08698 66084,1.1,1.7,281.3,3,8,40.8,23.9,0.1,0.5,0.5,0.9,0.9,0.2,107.49,1.6,1,3.5,0,0
-0.2,4.8,49,-131,14,1,-70.6427353,0,762,-0.76,-0.76,-1.594,133.8,0:01:04,40,7,,219,,29,15:03:55,10:57:02,5/24/2022,32.2313632,-110.90767,12SWA 08699 66084,1.1,1.7,325.6,3,8,41.5,24.2,0.1,0.5,0.5,0.9,0.9,0.1,107.49,1.7,1,1.8,0,0
-2.4,3.9,64,-116,15,1,-70.55240686,0.1,762,-0.68,-0.71,-1.586,133.8,0:01:05,40.9,7,,219,,30,15:03:55,10:57:03,5/24/2022,32.2313703,-110.9076659,12SWA 08699 66085,1.1,1.7,1.4,3,8,42.2,24.8,0,0.3,0.3,0.9,0.9,0.2,107.49,1.6,1.1,2.1,0,0
-0.2,2.5,76,-104,12,1.1,-71.60588922,0,762,-0.72,-0.69,-1.684,136.5,0:01:06,42.3,7,,219,,28,15:03:55,10:57:04,5/24/2022,32.2313829,-110.9076512,12SWA 08700 66086,1.1,1.7,29.7,3,8,42.9,25.5,0,0.3,0.3,0.9,0.9,0.2,107.51,1.4,1.1,2.3,0,0
0.4,1.6,76,-104,0,1.1,-71.00695886,-0.1,761.9,-0.84,-0.77,-1.627,136.5,0:01:07,43.4,7,,220,,26,15:03:55,10:57:05,5/24/2022,32.2313857,-110.9076433,12SWA 08701 66087,1.1,1.7,29.7,3,8,43.6,27,0.2,0.3,0.3,1.1,1.1,0.3,107.51,1.5,0.9,2.6,0,0
1.9,0.2,79,-101,3,1.1,-71.25309902,-0.1,761.9,-0.97,-0.96,-1.65,138.8,0:01:08,43.9,7,,220,,24,15:03:55,10:57:06,5/24/2022,32.2313928,-110.9076283,12SWA 08703 66088,1.1,1.7,29.7,3,8,44.3,28,0.3,0.4,0.4,1,1,0.3,107.53,1.7,1.6,2.6,0,0
-2.3,1,82,-98,3,1.1,-70.68759757,-0.2,761.7,-1.01,-1.01,-1.598,138.8,0:01:09,45.7,7,,221,,24,15:03:55,10:57:07,5/24/2022,32.2313966,-110.9076205,12SWA 08703 66088,1.1,1.7,53,3,8,45,29.1,0.3,0.4,0.4,1,1,0.3,107.53,2,1.4,3.5,0,0
-0.9,2.9,84,-96,2,0.9,-68.96248897,-0.2,761.8,-0.98,-0.99,-1.456,141.3,0:01:10,47.5,7,,222,,27,15:03:55,10:57:08,5/24/2022,32.2314026,-110.9076044,12SWA 08705 66089,1.1,1.7,53,3,8,45.5,30.2,0.3,0.4,0.4,0.9,0.9,0.3,107.53,1.6,1.1,3.2,0,0
-3.7,1.2,82,-98,-2,1.1,-66.15510097,-0.3,761.7,-1.09,-1.08,-1.267,143.7,0:01:11,48.6,7,,222,,25,15:03:55,10:57:09,5/24/2022,32.2314093,-110.9075861,12SWA 08706 66089,1.1,1.7,58.5,3,8,46.4,31.8,0.4,0.6,0.6,1,1,0.3,107.53,1.8,1.4,2.7,0,0
-4.6,1.2,79,-101,-3,1.2,-65.01965052,-0.4,761.6,-1.16,-1.11,-1.202,143.7,0:01:12,49.7,7,,223,,24,15:03:55,10:57:10,5/24/2022,32.2314123,-110.9075787,12SWA 08707 66090,1.1,1.7,58.5,3,8,47,32.8,0.5,0.7,0.7,1,1,0.3,107.55,1.9,1.6,3,0,0
-5.4,3.2,119,-61,40,0.7,-24.90476881,-0.4,761.6,-1.17,-1.18,-0.26,146,0:01:13,50.7,8,179,223,,32,15:03:55,10:57:11,5/24/2022,32.2314123,-110.9075787,12SWA 08707 66090,1.1,1.7,58.5,3,8,47.3,33.9,0.5,-0.1,0.1,0.9,0.9,0.4,107.55,2.3,1.7,3.1,0,0
-5.8,3.8,152,-28,33,1,-72.50838651,-0.4,761.5,-1.2,-1.2,-1.777,146,0:01:14,50.8,8,179,225,,29,15:03:55,10:57:12,5/24/2022,32.2314086,-110.907544,12SWA 08710 66089,1.1,1.7,129.8,3,8,46.5,34.9,0.5,-0.9,0.9,0.3,0.3,0.3,107.56,3.7,1.9,3.8,0,0
-5,4.1,194,14,42,1.1,-76.72180409,-0.4,761.5,-1.21,-1.17,-2.373,149.3,0:01:15,50.5,8,179,227,,27,15:03:55,10:57:13,5/24/2022,32.2314026,-110.9075356,12SWA 08711 66089,1.1,1.7,127.6,3,8,44.8,36.1,0.6,-1,1,-0.5,0.5,0.3,107.58,2,1.7,2.8,0,0
-1.2,2.8,207,27,13,1.1,-78.33717055,-0.3,761.6,-1.15,-1.18,-2.713,149.3,0:01:16,49.7,8,179,228,,27,15:03:55,10:57:14,5/24/2022,32.2313894,-110.9075336,12SWA 08711 66087,1.1,1.7,182.9,3,8,43.7,36,0.5,-0.9,0.9,-0.6,0.6,0.3,107.58,2,1.4,3.2,0,0
-2.6,2.3,212,32,5,1,-76.69476349,-0.2,761.7,-0.99,-0.99,-2.368,149.3,0:01:17,49.3,8,179,228,,26,15:03:55,10:57:15,5/24/2022,32.2313816,-110.9075345,12SWA 08711 66086,1.1,1.7,196.7,3,8,42.7,35.8,0.3,-0.8,0.8,-0.6,0.6,0.3,107.62,1.7,1.3,2.2,0,0
-1.4,3.3,210,30,-2,1.1,-75.40732222,-0.2,761.8,-0.93,-0.99,-2.151,152,0:01:18,48,8,179,229,,25,15:03:55,10:57:16,5/24/2022,32.2313701,-110.9075392,12SWA 08711 66085,1.1,1.7,198.3,3,8,41.6,35.5,0.3,-0.9,0.9,-0.6,0.6,0.2,107.62,1.8,0.8,2.5,0,0
0.4,3.5,209,29,-1,0.9,-73.61045967,0,762,-0.78,-0.88,-1.904,154.1,0:01:19,46.8,8,179,231,,27,15:03:55,10:57:17,5/24/2022,32.2313576,-110.9075429,12SWA 08711 66084,1.1,1.7,196.1,3,8,40.6,35.3,0.2,-0.8,0.8,-0.5,0.5,0.2,107.64,2.7,1.3,2.9,0,0
-0.3,5.4,209,29,0,0.8,-70.52969799,0.2,762.2,-0.59,-0.7,-1.584,154.1,0:01:20,46.1,8,179,231,,30,15:03:55,10:57:18,5/24/2022,32.2313524,-110.9075444,12SWA 08710 66083,1.1,1.7,200.4,3,8,39.2,35.1,-0.1,-0.8,0.8,-0.3,0.3,0.1,107.67,2,1.2,1.6,0,0
1,3.5,206,26,-3,1.1,-64.76172559,0.2,762.2,-0.49,-0.53,-1.188,154.1,0:01:21,45.7,8,179,232,,28,15:03:55,10:57:19,5/24/2022,32.2313419,-110.9075485,12SWA 08710 66082,1.1,1.7,197.1,3,8,38.2,34.9,-0.2,-0.9,0.9,-0.4,0.4,0.1,107.65,2.5,1,1.9,0,0
1.4,3.6,204,24,-2,0.9,-59.16216806,0.3,762.2,-0.53,-0.53,-0.938,156.6,0:01:22,44.5,8,179,233,,29,15:03:55,10:57:20,5/24/2022,32.231327,-110.9075532,12SWA 08710 66080,1.1,1.7,199.6,3,8,37.1,34.6,-0.2,-0.9,0.9,-0.3,0.3,0.1,107.64,1.6,0.9,2.2,0,0
-0.6,1.8,199,19,-5,1.1,-57.67566585,0.2,762.1,-0.61,-0.57,-0.885,158.7,0:01:23,43.3,8,179,235,,26,15:03:55,10:57:21,5/24/2022,32.2313212,-110.9075555,12SWA 08709 66080,1.1,1.7,196,3,8,36.1,34.5,-0.1,-1.1,1.1,-0.3,0.3,0.2,107.67,1.4,1.2,4,0,0
-1.6,1.3,198,18,-1,1,-59.82130971,0.1,762,-0.7,-0.68,-0.963,158.7,0:01:24,42.8,8,179,236,,27,15:03:55,10:57:22,5/24/2022,32.2313093,-110.9075562,12SWA 08709 66078,1.1,1.7,178.7,3,8,35.1,34.4,0,-1.1,1.1,-0.2,0.2,0.3,107.67,1.5,0.9,2.8,0,0
1.1,1.2,200,20,2,1,-62.46177585,0,762,-0.79,-0.79,-1.074,158.7,0:01:25,42.2,8,179,237,,26,15:03:55,10:57:23,5/24/2022,32.2313041,-110.9075571,12SWA 08709 66078,1.1,1.7,188.6,3,8,33.6,34.3,0.1,-1.1,1.1,-0.2,0.2,0.3,107.69,2.7,1.1,2.7,0,0
-1.4,2.4,202,22,2,1.1,-64.11415567,-0.1,761.9,-0.95,-0.84,-1.154,161.2,0:01:26,41.6,8,179,238,,25,15:03:55,10:57:24,5/24/2022,32.2312916,-110.9075567,12SWA 08709 66076,1.1,1.7,181.6,3,8,32.6,34.3,0.2,-1,1,-0.2,0.2,0.3,107.73,1.8,1.2,2.7,0,0
2.1,2.1,203,23,1,1,-66.20516462,-0.3,761.7,-1.05,-1.02,-1.27,163.4,0:01:27,40.6,8,179,240,,24,15:03:55,10:57:25,5/24/2022,32.2312806,-110.9075585,12SWA 08709 66075,1.1,1.7,187.2,3,8,31.4,34.2,0.4,-1.1,1.1,-0.2,0.2,0.3,107.73,2.1,1.2,2.2,0,0
0.5,2.4,201,21,-2,1,-65.83337016,-0.3,761.6,-1.12,-1.1,-1.248,163.4,0:01:28,40.3,8,179,240,,26,15:03:55,10:57:26,5/24/2022,32.2312757,-110.9075612,12SWA 08709 66075,1.1,1.7,192.6,3,8,30.4,34,0.5,-1,1,-0.1,0.1,0.3,107.73,3.2,1,2.9,0,0
2,3.1,193,13,-8,1,-61.65318125,-0.3,761.7,-1.03,-1.07,-1.038,163.4,0:01:29,39.4,8,179,242,,26,15:03:55,10:57:27,5/24/2022,32.2312645,-110.9075641,12SWA 08709 66073,1.1,1.7,194.6,3,8,29.2,33.8,0.4,-1,1,-0.1,0.1,0.2,107.78,1.1,0.6,1.7,0,0
-0.9,2.7,188,8,-5,1,-55.14211683,-0.1,761.9,-0.88,-0.91,-0.804,165.5,0:01:30,39,8,179,243,,25,15:03:55,10:57:28,5/24/2022,32.2312544,-110.9075649,12SWA 08709 66072,1.1,1.7,188.8,3,8,28.4,33.7,0.2,-0.9,0.9,-0.1,0.1,0.2,107.82,2.7,1.4,3,0,0
2.5,2,187,7,-1,1,-55.34164529,-0.1,761.9,-0.94,-0.88,-0.81,165.5,0:01:31,38.7,8,179,244,,24,15:03:55,10:57:29,5/24/2022,32.2312483,-110.9075639,12SWA 08709 66072,1.1,1.7,162.5,3,8,27.5,33.8,0.2,-1,1,0,0,0.2,107.83,2.1,1.1,1.7,0,0
3.2,3.7,196,16,9,0.9,-64.365379,-0.1,761.9,-0.87,-0.88,-1.167,168.3,0:01:32,38.3,8,179,246,,27,15:03:55,10:57:30,5/24/2022,32.2312354,-110.9075608,12SWA 08709 66070,1.1,1.7,167.3,3,8,26,34.1,0.2,-0.9,0.9,-0.1,0.1,0.2,107.87,1.9,1.1,2.3,0,0
0.6,2.3,203,23,7,1,-65.96982555,-0.1,761.9,-0.88,-0.88,-1.256,168.3,0:01:33,37.9,8,179,247,,26,15:03:55,10:57:31,5/24/2022,32.2312289,-110.9075602,12SWA 08709 66069,1.1,1.7,171.2,3,8,25,34.1,0.2,-1,1,-0.2,0.2,0.3,107.87,1.4,0.7,2.2,0,0
0.8,2.1,204,24,1,1.1,-65.07427954,-0.2,761.8,-0.95,-0.94,-1.205,170.3,0:01:34,37.3,8,179,249,,24,15:03:55,10:57:32,5/24/2022,32.2312174,-110.9075626,12SWA 08709 66068,1.1,1.7,188.9,3,8,24,33.8,0.3,-1.1,1.1,-0.2,0.2,0.3,107.91,1.4,0.9,1.4,0,0
1.1,2.7,198,18,-6,1.1,-59.45536465,-0.2,761.8,-0.95,-0.95,-0.949,170.3,0:01:35,36.8,8,179,250,,23,15:03:55,10:57:33,5/24/2022,32.2312068,-110.9075656,12SWA 08708 66067,1.1,1.7,188.7,3,8,23.1,33.6,0.3,-1.1,1.1,-0.1,0.1,0.3,107.94,1.2,0.8,2.5,0,0
0.3,2.6,191,11,-7,0.9,-59.45536465,-0.1,761.8,-0.91,-0.95,-0.949,170.3,0:01:36,36.4,8,179,251,,26,15:03:55,10:57:34,5/24/2022,32.2312068,-110.9075656,12SWA 08708 66067,1.1,1.7,188.7,3,8,22.2,33.5,0.3,-0.9,0.9,-0.1,0.1,0.3,107.94,1.1,0.9,2.2,0,0
2.7,3.1,189,9,-2,0.9,-54.66866866,0.1,762.1,-0.7,-0.8,-0.79,172.5,0:01:37,36.1,8,179,253,,29,15:03:55,10:57:35,5/24/2022,32.2311943,-110.9075653,12SWA 08708 66066,1.1,1.7,182.8,3,8,21.2,33.5,0,-0.8,0.8,-0.1,0.1,0.2,108.01,1.3,0.7,2.1,0,0
2.5,3.1,187,7,-2,0.9,-49.07886418,0.2,762.2,-0.64,-0.64,-0.646,172.5,0:01:38,35.8,8,179,254,,29,15:03:55,10:57:36,5/24/2022,32.2311852,-110.9075651,12SWA 08708 66065,1.1,1.7,181.1,3,8,20.8,33.5,0,-0.9,0.9,-0.1,0.1,0.2,108.07,1.9,0.7,1.9,0,0
1.9,1.5,185,5,-2,1,-47.77256575,0.3,762.3,-0.48,-0.53,-0.617,174.8,0:01:39,35.7,8,179,255,,28,15:03:55,10:57:37,5/24/2022,32.2311799,-110.9075643,12SWA 08709 66064,1.1,1.7,173.9,3,8,19.6,33.6,-0.2,-1,1,-0.1,0.1,0.2,108.09,2.1,1,2.7,0,0
1,2.8,188,8,3,1,-42.93379587,0.4,762.4,-0.34,-0.34,-0.521,174.8,0:01:40,35.4,8,179,257,,28,15:03:55,10:57:38,5/24/2022,32.2311656,-110.9075655,12SWA 08708 66062,1.1,1.7,183.5,3,8,18.5,33.6,-0.3,-1,1,-0.2,0.2,0.2,108.12,1.2,0.9,1.7,0,0
0.9,1.7,188,8,0,1,-42.65835454,0.5,762.5,-0.33,-0.33,-0.516,176.8,0:01:41,35.2,8,179,258,,26,15:03:55,10:57:39,5/24/2022,32.2311585,-110.9075661,12SWA 08708 66062,1.1,1.7,185.8,3,8,17.5,33.5,-0.4,-1.1,1.1,-0.1,0.1,0.2,108.14,1.9,1.2,2.2,0,0
0.9,2.5,186,6,-2,0.9,-44.37949235,0.3,762.3,-0.43,-0.38,-0.548,176.8,0:01:42,34.9,8,179,261,,28,15:03:55,10:57:40,5/24/2022,32.231144,-110.9075664,12SWA 08708 66060,1.1,1.7,179.3,3,8,16,33.5,-0.2,-0.9,0.9,-0.2,0.2,0.2,108.18,1.8,1,2,0,0
-1.5,2.7,206,26,20,1,0,0.3,762.2,-0.54,-0.54,0,176.8,0:01:43,34.8,9,231,261,,28,15:03:55,10:57:41,5/24/2022,32.2311317,-110.9075668,12SWA 08708 66059,1.1,1.7,193.5,3,8,15.6,33.5,-0.1,-1,1,-0.3,0.3,0.2,108.19,1.2,1,2.5,0,0
0.9,4.1,224,44,18,1,-37.26076671,0.3,762.2,-0.51,-0.6,-0.426,179.2,0:01:44,34,9,231,264,,28,15:03:55,10:57:42,5/24/2022,32.231126,-110.9075693,12SWA 08708 66058,1.1,1.7,201.2,3,8,14.2,32.9,-0.2,-0.7,0.7,-0.7,0.7,0.2,108.21,1,0.8,1.7,0,0
-0.9,3.3,232,52,8,1,-52.50734667,0.3,762.3,-0.43,-0.44,-0.73,181.3,0:01:45,33.2,9,231,265,,28,15:03:55,10:57:43,5/24/2022,32.2311157,-110.9075785,12SWA 08707 66057,1.1,1.7,212.7,3,8,13.5,32.2,-0.2,-0.5,0.5,-0.9,0.9,0.2,108.23,1.5,0.9,2.3,0,0
-0.6,1.7,238,58,6,1.1,-57.08102696,0.4,762.3,-0.41,-0.41,-0.865,181.3,0:01:46,32.4,9,231,266,,28,15:03:55,10:57:44,5/24/2022,32.2311115,-110.9075839,12SWA 08707 66056,1.1,1.7,228.1,3,8,12.8,31.4,-0.3,-0.5,0.5,-1,1,0.2,108.23,1.9,0.8,1.5,0,0
2.7,3.9,239,59,1,0.9,-57.96585385,0.4,762.4,-0.41,-0.42,-0.895,183.3,0:01:47,31.1,9,231,267,,30,15:03:55,10:57:45,5/24/2022,32.2311046,-110.9075976,12SWA 08705 66056,1.1,1.7,233.5,3,8,12,30.2,-0.3,-0.3,0.3,-0.9,0.9,0.2,108.23,1.6,0.9,2.1,0,0
2.2,4.5,244,64,5,1,-58.86385764,0.3,762.3,-0.43,-0.44,-0.927,183.3,0:01:48,30.2,9,231,268,,30,15:03:55,10:57:46,5/24/2022,32.2310991,-110.9076107,12SWA 08704 66055,1.1,1.7,236.5,3,8,11.5,29.2,-0.2,-0.3,0.3,-1,1,0.1,108.28,2.3,1,2.7,0,0
0.6,3.2,244,64,0,1,-57.79230203,0.4,762.4,-0.43,-0.42,-0.889,185.3,0:01:49,29.3,9,231,269,,30,15:03:55,10:57:47,5/24/2022,32.2310968,-110.9076163,12SWA 08704 66055,1.1,1.7,235,3,8,11,28.4,-0.3,-0.4,0.4,-0.9,0.9,0.2,108.28,1,0.7,1.8,0,0
-1.5,2.1,246,66,2,1,10.12467166,0.2,762.2,-0.58,-0.5,0.1,185.3,0:01:50,28.6,10,,270,,31,15:03:55,10:57:48,5/24/2022,32.2310909,-110.9076269,12SWA 08703 66054,1.1,1.7,242,3,8,10.5,27.6,-0.1,-0.4,0.4,-1,1,0.4,108.34,1.9,0.9,2.7,0,0
-2.9,3.4,248,68,2,0.9,-40.54226163,0.1,762.1,-0.7,-0.7,-0.479,185.3,0:01:51,28.1,10,,270,,33,15:03:55,10:57:49,5/24/2022,32.231089,-110.9076341,12SWA 08702 66054,1.1,1.7,249.5,3,8,10.2,26.7,0,-0.3,0.3,-1,1,0.2,108.36,2.8,1.2,2.9,0,0
-0.4,3.6,260,80,12,1.1,-55.34164529,0,762,-0.74,-0.74,-0.81,188.2,0:01:52,26,10,,272,,30,15:03:55,10:57:50,5/24/2022,32.2310834,-110.9076493,12SWA 08701 66053,1.1,1.7,241.6,3,8,9.7,25.1,0.1,0,0,-1,1,0.3,108.36,1.7,1.2,1.9,0,0
-0.8,3.8,272,92,12,1,-66.87001451,0,762,-0.76,-0.76,-1.311,190.4,0:01:53,25,10,,272,,31,15:03:55,10:57:51,5/24/2022,32.2310786,-110.9076652,12SWA 08699 66053,1.1,1.7,248.8,3,8,9.4,24.1,0.1,0.2,0.2,-1,1,0.3,108.37,1,1,1.6,0,0
-1.1,3.2,277,97,5,1,-67.63468812,0,762,-0.76,-0.76,-1.361,190.4,0:01:54,23.9,10,,272,,31,15:03:55,10:57:52,5/24/2022,32.2310791,-110.9076763,12SWA 08698 66053,1.1,1.7,266.9,3,8,9.4,22.9,0.1,0.2,0.2,-0.9,0.9,0.3,108.37,2.5,1.2,2.5,0,0
0.3,2.9,280,100,3,1,-64.64965679,0.1,762.1,-0.68,-0.69,-1.182,192.7,0:01:55,22.2,10,,272,,30,15:03:55,10:57:53,5/24/2022,32.231081,-110.9076919,12SWA 08697 66053,1.1,1.7,270.7,3,8,9.6,21.3,0,0.3,0.3,-1,1,0.3,108.41,1.7,0.8,2,0,0
1,2.2,275,95,-5,1.1,-62.17473039,0.1,762,-0.73,-0.69,-1.061,192.7,0:01:56,21.6,10,,272,,28,15:03:55,10:57:54,5/24/2022,32.2310838,-110.9077095,12SWA 08695 66053,1.1,1.7,271.5,3,8,9.7,20.7,0.1,0.2,0.2,-1,1,0.3,108.39,2,0.9,2.3,0,0
-2.2,0.9,271,91,-4,1.1,-55.07516075,0.2,762.1,-0.62,-0.62,-0.802,195.1,0:01:57,19.7,10,,272,,25,15:03:55,10:57:55,5/24/2022,32.2310849,-110.9077183,12SWA 08694 66053,1.1,1.7,274.2,3,8,9.9,18.8,0,0.1,0.1,-1.1,1.1,0.2,108.39,1.5,0.7,2,0,0
0.7,2,271,91,0,0.9,-56.83770311,0.1,762.1,-0.67,-0.66,-0.857,195.1,0:01:58,18.5,10,,272,,26,15:03:55,10:57:56,5/24/2022,32.2310844,-110.907736,12SWA 08692 66053,1.1,1.7,267.2,3,8,9.9,17.6,0,0.1,0.1,-1,1,0.2,108.39,2.2,1.2,2.5,0,0
-0.5,0.7,270,90,-1,1,-55.4406617,0.1,762.1,-0.69,-0.69,-0.813,197.4,0:01:59,17.4,10,,271,,26,15:03:55,10:57:57,5/24/2022,32.2310849,-110.9077513,12SWA 08691 66053,1.1,1.7,264.9,3,8,9.9,16.5,0,0.1,0.1,-0.9,0.9,0.3,108.36,1.3,1,1.9,0,0
-0.3,1.8,269,89,-1,0.9,-56.08828646,0.1,762.1,-0.66,-0.72,-0.833,199.6,0:02:00,15.8,10,,272,,28,15:03:55,10:57:58,5/24/2022,32.2310846,-110.9077613,12SWA 08690 66053,1.1,1.7,262.4,3,8,9.9,14.9,0,0.1,0.1,-1,1,0.3,108.37,1.4,1,2.7,0,0
0.7,3.6,268,88,-1,0.9,-55.24213139,0.1,762.1,-0.65,-0.68,-0.807,199.6,0:02:01,14.8,10,,271,,30,15:03:55,10:58:00,5/24/2022,32.2310844,-110.9077759,12SWA 08689 66053,1.1,1.7,269.1,3,8,10,13.9,0,0.1,0.1,-0.9,0.9,0.1,108.3,2.4,0.9,3.1,0,0
0.1,3,268,88,0,1.1,-54.87293949,0.2,762.1,-0.6,-0.6,-0.796,201.6,0:02:02,13.8,10,,272,,28,15:03:55,10:58:01,5/24/2022,32.2310839,-110.9077896,12SWA 08687 66053,1.1,1.7,257.2,3,8,10,12.9,-0.1,0,0,-1,1,0.2,108.25,1.2,1.1,2.1,0,0
2.3,2.1,272,92,4,1.1,-56.37279123,0.2,762.2,-0.56,-0.6,-0.842,201.6,0:02:03,12.8,10,,272,,28,15:03:55,10:58:02,5/24/2022,32.2310845,-110.9077961,12SWA 08687 66053,1.1,1.7,257.2,3,8,9.9,11.8,-0.1,0.1,0.1,-1,1,0.3,108.23,1.4,1.1,2.3,0,0
1.3,2.6,270,90,-2,1,-47.40021446,0.3,762.3,-0.49,-0.52,-0.609,203.7,0:02:04,11.1,10,,271,,28,15:03:55,10:58:03,5/24/2022,32.2310855,-110.9078109,12SWA 08685 66053,1.1,1.7,263.5,3,8,10.1,10.2,-0.2,0.1,0.1,-1.1,1.1,0.1,108.18,1.7,1,2.4,0,0
2,0.7,265,85,-5,1.1,-42.65835454,0.3,762.3,-0.49,-0.47,-0.516,203.7,0:02:05,10.1,10,,271,,27,15:03:55,10:58:04,5/24/2022,32.2310864,-110.9078208,12SWA 08684 66054,1.1,1.7,266.3,3,8,10.2,9.1,-0.2,0,0,-1,1,0.3,108.14,1.8,1,2.5,0,0
2.5,2.5,265,85,0,1,-45.90618457,0.2,762.2,-0.53,-0.53,-0.578,205.8,0:02:06,9.1,10,,271,,27,15:03:55,10:58:05,5/24/2022,32.2310868,-110.9078348,12SWA 08683 66054,1.1,2.1,266.3,3,7,10.2,8.2,-0.1,0,0,-1,1,0.2,108.1,1.8,1.3,2.9,0,0
2,3.4,256,76,-9,1,-19.01614609,0.4,762.3,-0.38,-0.42,-0.193,205.8,0:02:07,8,10,,270,,28,15:03:55,10:58:06,5/24/2022,32.2310897,-110.9078497,12SWA 08682 66054,1.1,2.1,266.3,3,7,10.5,7.1,-0.3,0,0,-1,1,0.1,108.09,1.6,0.8,2,0,0
1.7,1.6,255,75,-1,1,-16.03994331,0.5,762.5,-0.22,-0.31,-0.161,207.9,0:02:08,7.1,10,,270,,29,15:03:55,10:58:07,5/24/2022,32.2310866,-110.9078562,12SWA 08681 66054,1.1,2.1,266.3,3,7,10.3,6.1,-0.4,-0.1,0.1,-1,1,0.1,108.07,0.9,0.8,1.8,0,0
2.4,2.3,272,92,17,1,-51.09937027,0.4,762.3,-0.43,-0.31,-0.694,207.9,0:02:09,5.7,10,,275,,28,15:03:55,10:58:08,5/24/2022,32.2310806,-110.907869,12SWA 08680 66053,1.1,2.1,266.3,3,7,9.8,4.8,-0.3,0.1,0.1,-1.1,1.1,0.3,108.01,1.9,1.6,3.4,0,0
0.8,4.8,277,97,5,1,-62.39602007,0.2,762.2,-0.52,-0.52,-1.071,210.3,0:02:10,4.9,10,,277,,30,15:03:55,10:58:09,5/24/2022,32.2310807,-110.9078819,12SWA 08679 66053,1.1,2.1,266.3,3,7,9.8,3.9,-0.1,0.2,0.2,-0.9,0.9,0.3,107.98,1.9,1.5,2.9,0,0
0.2,2,288,108,11,1,-66.30470013,0.1,762.1,-0.72,-0.67,-1.276,210.3,0:02:11,4,10,,280,,30,15:03:55,10:58:10,5/24/2022,32.231081,-110.9078883,12SWA 08678 66053,1.1,2.1,266.3,3,7,9.7,3,0,0.2,0.2,-1,1,0.3,107.96,2,1.4,3.5,0,0
0,2.3,288,108,0,1,-65.73006904,0,762,-0.82,-0.8,-1.242,212.7,0:02:12,2.9,10,,280,,30,15:03:55,10:58:11,5/24/2022,32.2310871,-110.9079067,12SWA 08676 66054,1.1,2.1,276.6,3,7,9.9,1.9,0.1,0.2,0.2,-0.9,0.9,0.3,107.94,1.5,1.2,2.6,0,0
3.1,1.2,283,103,-5,0.7,-55.99250758,0,761.9,-0.83,-0.83,-0.83,212.7,0:02:13,1.8,10,,272,,2,15:03:55,10:58:12,5/24/2022,32.2310922,-110.9079145,12SWA 08676 66054,1.1,2.1,281.8,3,7,10.3,0.8,0.2,0.2,0.2,-0.9,0.9,0.3,107.92,2.2,0.9,2.4,0,0
3.4,1.9,285,105,2,0.4,-53.25252905,0.1,762,-0.68,-0.75,-0.75,212.7,0:02:14,1.2,10,,266,,0,15:03:55,10:58:13,5/24/2022,32.2310957,-110.9079247,12SWA 08675 66055,1.1,1.7,275.7,3,8,10.5,0.3,0,-0.2,0.2,0.4,0.4,0.2,107.89,0.2,0.3,0.1,0,0
3.2,1.8,285,105,0,0.3,-46.00508601,0.2,762.2,-0.58,-0.58,-0.58,212.7,0:02:15,1.2,10,,261,,0,15:03:55,10:58:14,5/24/2022,32.2310969,-110.907925,12SWA 08675 66055,1.1,1.7,275.7,3,8,10.6,0.3,-0.1,-0.1,0.1,0.3,0.3,0.2,107.83,0,0,0,0,0
3.1,1.7,285,105,0,0.3,-45.50702906,0.2,762.2,-0.62,-0.57,-0.57,212.7,0:02:16,1.2,10,,259,,0,15:03:55,10:58:15,5/24/2022,32.2310962,-110.9079261,12SWA 08674 66055,1.1,1.7,275.7,3,8,10.6,0.2,-0.1,-0.1,0.1,0.3,0.3,0.2,107.83,0,0,0,0,0
3.2,1.7,284,104,-1,0.3,-47.91083783,0.2,762.1,-0.58,-0.62,-0.62,212.7,0:02:17,1.1,10,,262,,0,15:03:55,10:58:16,5/24/2022,32.2310971,-110.9079276,12SWA 08674 66055,1.6,2.7,275.7,3,7,10.5,0.1,-0.1,-0.1,0.1,0.2,0.2,0.2,107.82,0,0,0,0,0
3.3,1.7,284,104,0,0.3,-40.00625601,0.3,762.3,-0.47,-0.47,-0.47,212.7,0:02:18,1.5,10,,241,,0,15:03:55,10:58:17,5/24/2022,32.2311032,-110.9079248,12SWA 08675 66055,1.6,2.7,275.7,3,7,10.9,0.3,-0.2,0,0,0.3,0.3,0.1,107.82,0,0,0,0,0
3.4,1.6,284,104,0,0.3,-36.86989765,0.4,762.4,-0.4,-0.42,-0.42,214.8,0:02:19,1.8,10,,233,,0,15:03:55,10:58:18,5/24/2022,32.2311043,-110.9079236,12SWA 08675 66056,1.6,2.7,275.7,3,7,11.4,0.5,-0.3,0.1,0.1,0.3,0.3,0.1,107.8,0,0,0,0,0
3.2,1.6,284,104,0,0.3,-32.73522627,0.4,762.4,-0.31,-0.36,-0.36,214.8,0:02:20,1.7,10,,237,,0,15:03:55,10:58:19,5/24/2022,32.231099,-110.9079235,12SWA 08675 66055,3.1,4,201.6,3,6,11.3,0.5,-0.3,0,0,0.3,0.3,0.1,107.78,0,0,0,0,0
3.1,1.6,284,104,0,0.3,-27.37770277,0.6,762.5,-0.2,-0.29,-0.29,214.8,0:02:21,1.6,10,,244,,0,15:03:55,10:58:20,5/24/2022,32.231099,-110.9079244,12SWA 08675 66055,3.1,4,201.6,3,6,11.1,0.5,-0.4,-0.1,0.1,0.2,0.2,0.1,107.78,0,0,0,0,0
3.1,1.6,284,104,0,0.3,-27.37770277,0.7,762.7,-0.09,-0.29,-0.29,214.8,0:02:22,1.7,10,,244,,0,15:03:55,10:58:21,5/24/2022,32.2311011,-110.9079238,12SWA 08675 66055,6.8,11.9,201.6,3,5,11.1,0.6,-0.6,-0.1,0.1,0.2,0.2,0,107.78,0,0,0,1,0
3.2,1.5,284,104,0,0.1,-27.37770277,0.8,762.8,-0.01,-0.29,-0.29,214.8,0:02:23,1.3,10,,227,,0,15:03:55,10:58:22,5/24/2022,32.2311061,-110.9079603,12SWA 08671 66056,6.8,11.9,201.6,3,5,11.3,0,-0.7,0,0,0.1,0.1,0,107.78,0,0,0,1,0
1.9,1.8,287,107,3,0.8,-12.19254327,0.9,762.9,0.19,0.03,-0.121,214.8,0:02:24,1.3,2,356,195,,35,15:03:55,10:58:23,5/24/2022,32.231116,-110.9079591,12SWA 08671 66057,6.8,11.9,201.6,3,5,11.6,-0.6,-0.8,0.2,0.2,-0.5,0.5,0,107.76,1.9,0.9,1.2,1,0
-1.6,2.2,0,-180,-287,1.1,-54.5313366,1.1,763.1,0.37,0.34,-0.786,216.9,0:02:25,2.1,2,356,166,,29,15:03:55,10:58:24,5/24/2022,32.2311135,-110.907965,12SWA 08671 66057,7.5,13.8,201.6,3,4,12.4,-1.5,-1,1,1,-0.1,0.1,-0.2,107.78,1.7,1.6,1.9,1,0
1.2,3.2,19,-161,19,1,-50.02611042,1.2,763.1,0.45,0.45,-0.668,216.9,0:02:26,3,2,356,168,,30,15:03:55,10:58:25,5/24/2022,32.2311163,-110.9079637,12SWA 08671 66057,6.8,11.9,201.6,3,5,13.3,-1.6,-1.1,1.1,1.1,0.4,0.4,0,107.78,2.9,1.2,4.1,1,0
3.3,3.2,12,-168,-7,1,-33.73726338,1.4,763.4,0.62,0.55,-0.374,219,0:02:27,4.1,2,356,175,,31,15:03:55,10:58:26,5/24/2022,32.231125,-110.9079546,12SWA 08672 66058,6.8,11.9,201.6,3,5,14.5,-1.3,-1.3,0.9,0.9,0.3,0.3,-0.1,107.76,2.4,1.3,2.3,1,0
-1.6,3.4,33,-147,21,1,-75.20323775,1.4,763.4,0.64,0.66,-2.12,221.6,0:02:28,6.1,2,356,155,,35,15:03:55,10:58:27,5/24/2022,32.2312648,-110.9081329,12SWA 08655 66073,8.6,16.7,284.4,3,6,15.9,-3.5,-1.3,0.8,0.8,0.4,0.4,0,107.74,1.9,2,3.8,1,0
-2.6,1.4,43,-137,10,0.7,-75.20323775,1.3,763.3,0.49,0.66,-2.12,225.6,0:02:29,10,2,356,152,,0,15:03:55,10:58:28,5/24/2022,32.2317239,-110.9085184,12SWA 08619 66124,100,100,333.1,3,6,19.2,-5.7,-1.2,0.8,0.8,0.1,0.1,-0.1,107.74,3.1,1.2,2.9,1,0
2.2,1.4,45,-135,2,2,-75.20323775,1.2,763.1,0.39,0.66,-2.12,238,0:02:30,22.3,2,356,147,,0,15:03:55,10:58:29,5/24/2022,32.2322465,-110.9088766,12SWA 08585 66182,3.1,4,331.5,3,6,25.2,-10.3,-1.1,0.7,0.7,-1.2,1.2,-0.1,107.78,0.5,0.7,1.2,1,0
1.7,1,46,-134,1,3,-75.20323775,1.1,763.1,0.36,0.66,-2.12,246.5,0:02:31,30.8,2,356,145,,0,15:03:55,10:58:30,5/24/2022,32.231965,-110.9091044,12SWA 08563 66151,1.8,2.1,221.9,3,5,35.8,-18.5,-1,2.3,2.3,-2.1,2.1,-0.1,107.76,0,0,0,1,0
1.6,1,46,-134,0,3.3,-75.20323775,1.1,763,0.31,0.66,-2.12,248.7,0:02:32,34.4,2,356,144,,0,15:03:55,10:58:31,5/24/2022,32.2318416,-110.9092345,12SWA 08551 66137,100,100,221.9,1,0,38.4,-21,-1,2.5,2.5,-2.2,2.2,-0.1,107.8,0,0,0,1,0
1.7,1,47,-133,1,3.3,-75.20323775,1.1,763,0.3,0.66,-2.12,251.4,0:02:33,36.8,2,356,144,,0,15:03:55,10:58:32,5/24/2022,32.2315949,-110.9094947,12SWA 08527 66110,100,100,221.9,1,0,40.2,-22.6,-0.9,2.5,2.5,-2.1,2.1,0,107.8,0,0,0,1,0
1.7,1.1,47,-133,0,3.3,-75.20323775,1.1,763.1,0.37,0.66,-2.12,253.8,0:02:34,39.4,2,356,144,,0,15:03:55,10:58:33,5/24/2022,32.2313481,-110.9097549,12SWA 08502 66082,100,100,221.9,1,0,42.2,-24.3,-1,2.5,2.5,-2.1,2.1,-0.1,107.83,0,0,0,1,0
1.7,1.1,48,-132,1,3.3,-75.20323775,1.1,763.1,0.33,0.66,-2.12,259.2,0:02:35,43.4,2,356,143,,0,15:03:55,10:58:34,5/24/2022,32.2312248,-110.909885,12SWA 08490 66069,100,100,221.9,1,0,44.2,-26.1,-1,2.5,2.5,-2.1,2.1,0,107.83,0,0,0,1,0
1.7,1.2,48,-132,0,3.3,-75.20323775,1,763,0.25,0.66,-2.12,261.9,0:02:36,46.2,2,356,143,,0,15:03:55,10:58:35,5/24/2022,32.2309781,-110.9101452,12SWA 08465 66041,100,100,221.9,1,0,47.3,-28.8,-0.9,2.5,2.5,-2.1,2.1,0,107.85,0,0,0,1,0
1.7,1.2,49,-131,1,3.3,-75.20323775,1,763,0.22,0.66,-2.12,264.8,0:02:38,49,2,356,143,,0,15:03:55,10:58:36,5/24/2022,32.2308136,-110.9103187,12SWA 08449 66023,100,100,221.9,1,0,49.5,-30.6,-0.9,2.5,2.5,-2.1,2.1,0,107.85,0,0,0,1,0
0,-0.7,28,-152,-21,0,-75.20323775,0.9,762.9,0.17,0.66,-2.12,267.6,0:02:38,51.9,2,356,143,,0,15:03:55,10:58:37,5/24/2022,32.2305668,-110.9105789,12SWA 08425 65996,100,100,221.9,1,0,51.7,-32.4,-0.8,2.6,2.6,-2.1,2.1,0,107.89,0,0,0,1,0
0.2,-0.4,34,-146,6,0,-75.20323775,1.2,763.2,-0.46,0.66,-2.12,534.2,0:02:39,306.7,2,356,166,,0,15:03:55,10:58:38,5/24/2022,32.2303201,-110.910839,12SWA 08400 65968,100,100,221.9,1,0,51.7,-32.4,-0.8,2.6,2.6,-2.1,2.1,0,107.92,0,0,0,1,0
0.4,-0.3,38,-142,4,0,-75.20323775,0.8,762.8,-0.17,0.66,-2.12,560.7,0:02:40,323.1,2,356,170,,0,15:03:55,10:58:39,5/24/2022,32.2301968,-110.9109691,12SWA 08388 65955,100,100,221.9,1,0,51.7,-32.4,-0.8,2.6,2.6,-2.1,2.1,0,107.92,0,0,0,1,0
0.7,-0.2,42,-138,4,0,-75.20323775,0.5,762.5,-0.27,0.66,-2.12,581.8,0:02:41,335.9,2,356,173,,0,15:03:55,10:58:40,5/24/2022,32.22995,-110.9112293,12SWA 08363 65927,100,100,221.9,1,0,51.7,-32.4,-0.8,2.6,2.6,-2.1,2.1,0,107.94,0,0,0,1,0
0.9,-0.1,46,-134,4,0,-75.20323775,1.5,763.5,0.7,0.66,-2.12,602.5,0:02:42,348.3,2,356,175,,0,15:03:55,10:58:41,5/24/2022,32.2298678,-110.911316,12SWA 08355 65918,100,100,221.9,1,0,51.7,-32.4,-0.8,2.6,2.6,-2.1,2.1,0,107.98,0,0,0,1,0
1.1,0.1,50,-130,4,0,-75.20323775,0.9,762.9,1.03,0.66,-2.12,623.6,0:02:43,361,2,356,178,,0,15:03:55,10:58:42,5/24/2022,32.2298678,-110.911316,12SWA 08355 65918,100,100,221.9,1,0,51.7,-32.4,-0.8,2.6,2.6,-2.1,2.1,0,108.01,0,0,0,1,0
1.3,0.2,52,-128,2,0,-75.20323775,0.7,762.6,0.85,0.66,-2.12,649.6,0:02:44,376.7,2,356,181,,0,15:03:55,10:58:43,5/24/2022,32.2298678,-110.911316,12SWA 08355 65918,100,100,221.9,1,0,51.7,-32.4,-0.8,2.6,2.6,-2.1,2.1,0,108.05,0,0,0,1,1
1.5,0.3,55,-125,3,0,-75.20323775,0.3,762.3,0.15,0.66,-2.12,680.9,0:02:45,396,2,356,185,,0,15:03:55,10:58:44,5/24/2022,32.2298678,-110.911316,12SWA 08355 65918,100,100,221.9,1,0,51.7,-32.4,-0.8,2.6,2.6,-2.1,2.1,0,108.07,0,0,0,1,1
1.6,0.4,57,-123,2,0,-75.20323775,0.6,762.6,0.47,0.66,-2.12,702,0:02:46,409.1,2,356,187,,0,15:03:55,10:58:45,5/24/2022,32.2298678,-110.911316,12SWA 08355 65918,100,100,221.9,1,0,51.7,-32.4,-0.8,2.6,2.6,-2.1,2.1,0,108.12,0,0,0,1,1
1.8,0.5,58,-122,1,0,-75.20323775,1,763,0.41,0.66,-2.12,722.6,0:02:48,422.2,2,356,190,,0,15:03:55,10:58:46,5/24/2022,32.2298678,-110.911316,12SWA 08355 65918,100,100,221.9,1,0,51.7,-32.4,-0.8,2.6,2.6,-2.1,2.1,0,108.16,0,0,0,1,1
2,0.6,60,-120,2,0,-75.20323775,1,763,0.6,0.66,-2.12,749.1,0:02:48,439.3,2,356,192,,0,15:03:55,10:58:47,5/24/2022,32.2298678,-110.911316,12SWA 08355 65918,100,100,221.9,1,0,51.7,-32.4,-0.8,2.6,2.6,-2.1,2.1,0,108.18,0,0,0,1,1
2.1,0.7,62,-118,2,0,-75.20323775,1.7,763.7,-0.63,0.66,-2.12,770.2,0:02:49,453.2,2,356,194,,0,15:03:55,10:58:48,5/24/2022,32.2298678,-110.911316,12SWA 08355 65918,100,100,221.9,1,0,51.7,-32.4,-0.8,2.6,2.6,-2.1,2.1,0,108.23,0,0,0,1,1
2.2,0.8,63,-117,1,0,-75.20323775,0.2,762.2,-0.55,0.66,-2.12,802.1,0:02:50,474.7,2,356,197,,0,15:03:55,10:58:49,5/24/2022,32.2298678,-110.911316,12SWA 08355 65918,100,100,221.9,1,0,51.7,-32.4,-0.8,2.6,2.6,-2.1,2.1,0,108.28,0,0,0,1,1
2.3,0.8,64,-116,1,0,-75.20323775,1.8,763.8,-0.11,0.66,-2.12,822.7,0:02:51,489,2,356,199,,0,15:03:55,10:58:50,5/24/2022,32.2298678,-110.911316,12SWA 08355 65918,100,100,221.9,1,0,51.7,-32.4,-0.8,2.6,2.6,-2.1,2.1,0,108.32,0,0,0,1,1
2.4,0.9,65,-115,1,0,-75.20323775,0.6,762.6,0.3,0.66,-2.12,849.2,0:02:52,507.7,2,356,201,,0,15:03:55,10:58:51,5/24/2022,32.2298678,-110.911316,12SWA 08355 65918,100,100,221.9,1,0,51.7,-32.4,-0.8,2.6,2.6,-2.1,2.1,0,108.39,0,0,0,1,1
2.4,1,65,-115,0,0,-75.20323775,1.1,763.1,0.64,0.66,-2.12,870.2,0:02:54,522.9,2,356,203,,0,15:03:55,10:58:52,5/24/2022,32.2298678,-110.911316,12SWA 08355 65918,100,100,221.9,1,0,51.7,-32.4,-0.8,2.6,2.6,-2.1,2.1,0,108.43,0,0,0,1,1
2.5,1.1,66,-114,1,0,-75.20323775,0.9,762.9,0.13,0.66,-2.12,900.6,0:02:55,545.4,2,356,205,,0,15:03:55,10:58:53,5/24/2022,32.2298678,-110.911316,12SWA 08355 65918,100,100,221.9,1,0,51.7,-32.4,-0.8,2.6,2.6,-2.1,2.1,0,108.5,0,0,0,1,1
2.6,1.1,66,-114,0,0,-75.20323775,1.3,763.2,0.86,0.66,-2.12,926.6,0:02:56,565,2,356,207,,0,15:03:55,10:58:54,5/24/2022,32.2298678,-110.911316,12SWA 08355 65918,100,100,221.9,1,0,51.7,-32.4,-0.8,2.6,2.6,-2.1,2.1,0,108.55,0,0,0,1,1
2.6,1.2,67,-113,1,0,-75.20323775,1.8,763.7,-1.22,0.66,-2.12,947.7,0:02:57,581.2,2,356,208,,0,15:03:55,10:58:55,5/24/2022,32.2298678,-110.911316,12SWA 08355 65918,100,100,221.9,1,0,51.7,-32.4,-0.8,2.6,2.6,-2.1,2.1,0,108.59,0,0,0,1,1
2.7,1.3,67,-113,0,0,-75.20323775,1.8,763.8,0.37,0.66,-2.12,980.1,0:02:58,606.5,2,356,210,,0,15:03:55,10:58:56,5/24/2022,32.2298678,-110.911316,12SWA 08355 65918,100,100,221.9,1,0,51.7,-32.4,-0.8,2.6,2.6,-2.1,2.1,0,108.64,0,0,0,1,1
2.7,1.3,67,-113,0,0,-75.20323775,1.8,763.8,-0.35,0.66,-2.12,980.1,0:02:59,606.5,2,356,210,,0,15:03:55,10:58:57,5/24/2022,32.2298678,-110.911316,12SWA 08355 65918,100,100,221.9,1,0,51.7,-32.4,-0.8,2.6,2.6,-2.1,2.1,0,108.72,0,0,0,1,1
2.7,1.4,68,-112,1,0,-75.20323775,1.1,763,0.3,0.66,-2.12,1026.7,0:03:00,643.9,2,356,213,,0,15:03:55,10:58:58,5/24/2022,32.2298678,-110.911316,12SWA 08355 65918,100,100,221.9,1,0,51.7,-32.4,-0.8,2.6,2.6,-2.1,2.1,0,108.75,0,0,0,1,1
2.7,1.3,68,-112,0,0,-75.20323775,0.3,762.3,0.26,0.66,-2.12,1048.2,0:03:01,661.5,2,356,214,,0,15:03:55,10:58:59,5/24/2022,32.2298678,-110.911316,12SWA 08355 65918,100,100,221.9,1,0,51.7,-32.4,-0.8,2.6,2.6,-2.1,2.1,0,108.82,0,0,0,1,1
2.7,1.4,68,-112,0,0,-75.20323775,1.5,763.5,0.81,0.66,-2.12,1069.8,0:03:02,679.3,2,356,215,,0,15:03:55,10:59:00,5/24/2022,32.2298678,-110.911316,12SWA 08355 65918,100,100,221.9,1,0,51.7,-32.4,-0.8,2.6,2.6,-2.1,2.1,0,108.84,0,0,0,1,1
2.7,1.4,68,-112,0,0,-75.20323775,0.2,762.2,0.2,0.66,-2.12,1100.7,0:03:03,705.2,2,356,216,,0,15:03:55,10:59:01,5/24/2022,32.2298678,-110.911316,12SWA 08355 65918,100,100,221.9,1,0,51.7,-32.4,-0.8,2.6,2.6,-2.1,2.1,0,108.91,0,0,0,1,1
2.7,1.4,68,-112,0,0,-75.20323775,0.6,762.6,-0.42,0.66,-2.12,1125.7,0:03:04,726.4,2,356,217,,0,15:03:55,10:59:02,5/24/2022,32.2298678,-110.911316,12SWA 08355 65918,100,100,221.9,1,0,51.7,-32.4,-0.8,2.6,2.6,-2.1,2.1,0,108.99,0,0,0,1,1
2.7,1.4,68,-112,0,0,-75.20323775,0.8,762.7,-0.39,0.66,-2.12,1146.3,0:03:05,744,2,356,218,,0,15:03:55,10:59:03,5/24/2022,32.2298678,-110.911316,12SWA 08355 65918,100,100,221.9,1,0,51.7,-32.4,-0.8,2.6,2.6,-2.1,2.1,0,109.02,0,0,0,1,1
2.8,1.3,68,-112,0,0,-75.20323775,1.5,763.5,0.54,0.66,-2.12,1167.4,0:03:06,762.2,2,356,219,,0,15:03:55,10:59:04,5/24/2022,32.2298678,-110.911316,12SWA 08355 65918,100,100,221.9,1,0,51.7,-32.4,-0.8,2.6,2.6,-2.1,2.1,0,109.09,0,0,0,1,1
2.8,1.4,69,-111,1,0,-75.20323775,0.8,762.8,1.12,0.66,-2.12,1189,0:03:07,780.9,2,356,220,,0,15:03:55,10:59:05,5/24/2022,32.2298678,-110.911316,12SWA 08355 65918,100,100,221.9,1,0,51.7,-32.4,-0.8,2.6,2.6,-2.1,2.1,0,109.11,0,0,0,1,1
2.7,1.3,69,-111,0,0,-75.20323775,1.2,763.1,0.4,0.66,-2.12,1226.3,0:03:08,813.6,2,356,221,,0,15:03:55,10:59:06,5/24/2022,32.2298678,-110.911316,12SWA 08355 65918,100,100,221.9,1,0,51.7,-32.4,-0.8,2.6,2.6,-2.1,2.1,0,109.18,0,0,0,1,1
2.7,1.3,69,-111,0,0,-75.20323775,0.8,762.7,-0.11,0.66,-2.12,1246.9,0:03:09,831.8,2,356,222,,0,15:03:55,10:59:07,5/24/2022,32.2298678,-110.911316,12SWA 08355 65918,100,100,221.9,1,0,51.7,-32.4,-0.8,2.6,2.6,-2.1,2.1,0,109.24,0,0,0,1,1
2.7,1.3,69,-111,0,0,-75.20323775,0.3,762.2,0.4,0.66,-2.12,1267.9,0:03:10,850.6,2,356,222,,0,15:03:55,10:59:08,5/24/2022,32.2298678,-110.911316,12SWA 08355 65918,100,100,221.9,1,0,51.7,-32.4,-0.8,2.6,2.6,-2.1,2.1,0,109.27,0,0,0,1,1
2.7,1.3,69,-111,0,0,-75.20323775,-0.1,761.9,0.69,0.66,-2.12,1304.2,0:03:11,883.1,2,356,223,,0,15:03:55,10:59:09,5/24/2022,32.2298678,-110.911316,12SWA 08355 65918,100,100,221.9,1,0,51.7,-32.4,-0.8,2.6,2.6,-2.1,2.1,0,109.33,0,0,0,1,1
2.7,1.3,69,-111,0,0,-75.20323775,1.3,763.3,0.65,0.66,-2.12,1314.5,0:03:12,892.4,2,356,224,,0,15:03:55,10:59:10,5/24/2022,32.2298678,-110.911316,12SWA 08355 65918,100,100,221.9,1,0,51.7,-32.4,-0.8,2.6,2.6,-2.1,2.1,0,109.4,0,0,0,1,1
2.7,1.3,69,-111,0,0,-75.20323775,0.8,762.7,-0.01,0.66,-2.12,1346.4,0:03:13,921.3,2,356,224,,0,15:03:55,10:59:11,5/24/2022,32.2298678,-110.911316,12SWA 08355 65918,100,100,221.9,1,0,51.7,-32.4,-0.8,2.6,2.6,-2.1,2.1,0,109.42,0,0,0,1,1
2.7,1.3,69,-111,0,0,-75.20323775,1.9,763.9,1.14,0.66,-2.12,1367,0:03:14,940,2,356,225,,0,15:03:55,10:59:12,5/24/2022,32.2298678,-110.911316,12SWA 08355 65918,100,100,221.9,1,0,51.7,-32.4,-0.8,2.6,2.6,-2.1,2.1,0,109.49,0,0,0,1,1
2.6,1.3,69,-111,0,0,-75.20323775,1,763,0.22,0.66,-2.12,1393.5,0:03:15,964.3,2,356,226,,0,15:03:55,10:59:13,5/24/2022,32.2298678,-110.911316,12SWA 08355 65918,100,100,221.9,1,0,51.7,-32.4,-0.8,2.6,2.6,-2.1,2.1,0,109.51,0,0,0,1,1
2.6,1.3,68,-112,-1,0,-75.20323775,1.6,763.5,0.8,0.66,-2.12,1424.4,0:03:16,992.7,2,356,226,,0,15:03:55,10:59:14,5/24/2022,32.2298678,-110.911316,12SWA 08355 65918,100,100,221.9,1,0,51.7,-32.4,-0.8,2.6,2.6,-2.1,2.1,0,109.58,0,0,0,1,1
2.6,1.3,68,-112,0,0,-75.20323775,0.8,762.8,0.08,0.66,-2.12,1445.5,0:03:17,1012.3,2,356,227,,0,15:03:55,10:59:15,5/24/2022,32.2298678,-110.911316,12SWA 08355 65918,100,100,221.9,1,0,51.7,-32.4,-0.8,2.6,2.6,-2.1,2.1,0,109.63,0,0,0,1,1
2.6,1.3,68,-112,0,0,-75.20323775,0.9,762.9,1.05,0.66,-2.12,1471.4,0:03:18,1036.4,2,356,227,,0,15:03:55,10:59:16,5/24/2022,32.2298678,-110.911316,12SWA 08355 65918,100,100,221.9,1,0,51.7,-32.4,-0.8,2.6,2.6,-2.1,2.1,0,109.67,0,0,0,1,1
2.5,1.3,68,-112,0,0,-75.20323775,0.7,762.7,0.33,0.66,-2.12,1492,0:03:19,1055.6,2,356,228,,0,15:03:55,10:59:17,5/24/2022,32.2298678,-110.911316,12SWA 08355 65918,100,100,221.9,1,0,51.7,-32.4,-0.8,2.6,2.6,-2.1,2.1,0,109.74,0,0,0,1,1
2.5,1.3,68,-112,0,0,-75.20323775,1.1,763,0.28,0.66,-2.12,1512.6,0:03:20,1074.9,2,356,228,,0,15:03:55,10:59:18,5/24/2022,32.2298678,-110.911316,12SWA 08355 65918,100,100,221.9,1,0,51.7,-32.4,-0.8,2.6,2.6,-2.1,2.1,0,109.78,0,0,0,1,1
2.5,1.3,68,-112,0,0,-75.20323775,1,763,0.72,0.66,-2.12,1548.9,0:03:21,1109,2,356,229,,0,15:03:55,10:59:19,5/24/2022,32.2298678,-110.911316,12SWA 08355 65918,100,100,221.9,1,0,51.7,-32.4,-0.8,2.6,2.6,-2.1,2.1,0,109.83,0,0,0,1,1
2.4,1.3,68,-112,0,0,-75.20323775,0.6,762.6,-0.14,0.66,-2.12,1570,0:03:22,1128.9,2,356,229,,0,15:03:55,10:59:20,5/24/2022,32.2298678,-110.911316,12SWA 08355 65918,100,100,221.9,1,0,51.7,-32.4,-0.8,2.6,2.6,-2.1,2.1,0,109.9,0,0,0,1,1
2.4,1.4,68,-112,0,0,-75.20323775,1.1,763.1,0.34,0.66,-2.12,1591.1,0:03:23,1148.9,2,356,229,,0,15:03:55,10:59:21,5/24/2022,32.2298678,-110.911316,12SWA 08355 65918,100,100,221.9,1,0,51.7,-32.4,-0.8,2.6,2.6,-2.1,2.1,0,109.96,0,0,0,1,1
2.5,1.4,68,-112,0,0,-75.20323775,1.3,763.3,-0.06,0.66,-2.12,1611.7,0:03:24,1168.4,2,356,230,,0,15:03:55,10:59:22,5/24/2022,32.2298678,-110.911316,12SWA 08355 65918,100,100,221.9,1,0,51.7,-32.4,-0.8,2.6,2.6,-2.1,2.1,0,110.01,0,0,0.1,1,1
2.4,1.4,67,-113,-1,0,-75.20323775,0.4,762.4,-0.29,0.66,-2.12,1648,0:03:25,1202.9,2,356,230,,0,15:03:55,10:59:23,5/24/2022,32.2298678,-110.911316,12SWA 08355 65918,100,100,221.9,1,0,51.7,-32.4,-0.8,2.6,2.6,-2.1,2.1,0,110.07,0,0,0,1,1
2.3,1.3,67,-113,0,0,-75.20323775,1.2,763.2,-0.12,0.66,-2.12,1668.6,0:03:26,1222.6,2,356,231,,0,15:03:55,10:59:24,5/24/2022,32.2298678,-110.911316,12SWA 08355 65918,100,100,221.9,1,0,51.7,-32.4,-0.8,2.6,2.6,-2.1,2.1,0,110.08,0,0,0,1,1
2.3,1.3,67,-113,0,0,-75.20323775,0.5,762.5,0.48,0.66,-2.12,1688.7,0:03:27,1241.8,2,356,231,,0,15:03:55,10:59:25,5/24/2022,32.2298678,-110.911316,12SWA 08355 65918,100,100,221.9,1,0,51.7,-32.4,-0.8,2.6,2.6,-2.1,2.1,0,110.12,0,0,0,1,1
2.3,1.3,67,-113,0,0,-75.20323775,1.2,763.2,0.24,0.66,-2.12,1714.7,0:03:28,1266.7,2,356,231,,0,15:03:55,10:59:26,5/24/2022,32.2298678,-110.911316,12SWA 08355 65918,100,100,221.9,1,0,51.7,-32.4,-0.8,2.6,2.6,-2.1,2.1,0,110.19,0,0,0,1,1
2.3,1.3,67,-113,0,0,-75.20323775,1.3,763.2,0.38,0.66,-2.12,1734.8,0:03:29,1286,2,356,231,,0,15:03:55,10:59:27,5/24/2022,32.2298678,-110.911316,12SWA 08355 65918,100,100,221.9,1,0,51.7,-32.4,-0.8,2.6,2.6,-2.1,2.1,0,110.21,0,0,0,1,1
2.2,1.3,67,-113,0,0,-75.20323775,1,763,0.22,0.66,-2.12,1766.6,0:03:30,1316.7,2,356,232,,0,15:03:55,10:59:28,5/24/2022,32.2298678,-110.911316,12SWA 08355 65918,100,100,221.9,1,0,51.7,-32.4,-0.8,2.6,2.6,-2.1,2.1,0,110.28,0,0,0,1,1
2.2,1.4,67,-113,0,0,-75.20323775,0.4,762.4,-0.33,0.66,-2.12,1792.6,0:03:31,1341.7,2,356,232,,0,15:03:55,10:59:29,5/24/2022,32.2298678,-110.911316,12SWA 08355 65918,100,100,221.9,1,0,51.7,-32.4,-0.8,2.6,2.6,-2.1,2.1,0,110.34,0,0,0,1,1
2.2,1.4,67,-113,0,0,-75.20323775,1.6,763.5,-0.11,0.66,-2.12,1814.2,0:03:32,1362.5,2,356,232,,0,15:03:55,10:59:30,5/24/2022,32.2298678,-110.911316,12SWA 08355 65918,100,100,221.9,1,0,51.7,-32.4,-0.8,2.6,2.6,-2.1,2.1,0,110.35,0,0,0,1,1
2.2,1.4,67,-113,0,0,-75.20323775,0.9,762.9,-0.07,0.66,-2.12,1835.8,0:03:33,1383.4,2,356,233,,0,15:03:55,10:59:31,5/24/2022,32.2298678,-110.911316,12SWA 08355 65918,100,100,221.9,1,0,51.7,-32.4,-0.8,2.6,2.6,-2.1,2.1,0,110.43,0,0,0,1,1
2.1,1.4,67,-113,0,0,-75.20323775,0.7,762.6,0.23,0.66,-2.12,1856.4,0:03:34,1403.3,2,356,233,,0,15:03:55,10:59:32,5/24/2022,32.2298678,-110.911316,12SWA 08355 65918,100,100,221.9,1,0,51.7,-32.4,-0.8,2.6,2.6,-2.1,2.1,0,110.44,0,0,0,1,1
2.1,1.4,67,-113,0,0,-75.20323775,0.8,762.8,0.06,0.66,-2.12,1892.2,0:03:35,1438,2,356,233,,0,15:03:55,10:59:33,5/24/2022,32.2298678,-110.911316,12SWA 08355 65918,100,100,221.9,1,0,51.7,-32.4,-0.8,2.6,2.6,-2.1,2.1,0,110.46,0,0,0,1,1
2.1,1.4,67,-113,0,0,-75.20323775,1.1,763.1,0.02,0.66,-2.12,1913.3,0:03:36,1458.5,2,356,233,,0,15:03:55,10:59:34,5/24/2022,32.2298678,-110.911316,12SWA 08355 65918,100,100,221.9,1,0,51.7,-32.4,-0.8,2.6,2.6,-2.1,2.1,0,110.53,0,0,0,1,1
2.1,1.4,67,-113,0,0,-75.20323775,1,763,0.99,0.66,-2.12,1933.4,0:03:37,1478.1,2,356,234,,0,15:03:55,10:59:35,5/24/2022,32.2298678,-110.911316,12SWA 08355 65918,100,100,221.9,1,0,51.7,-32.4,-0.8,2.6,2.6,-2.1,2.1,0,110.55,0,0,0,1,1
2.1,1.4,67,-113,0,0,-75.20323775,1.2,763.2,0.43,0.66,-2.12,1970.1,0:03:38,1513.8,2,356,234,,0,15:03:55,10:59:36,5/24/2022,32.2298678,-110.911316,12SWA 08355 65918,100,100,221.9,1,0,51.7,-32.4,-0.8,2.6,2.6,-2.1,2.1,0,110.57,0,0,0,1,1
2.1,1.3,67,-113,0,0,-75.20323775,1.4,763.4,0.61,0.66,-2.12,1980.4,0:03:39,1523.9,2,356,234,,0,15:03:55,10:59:37,5/24/2022,32.2298678,-110.911316,12SWA 08355 65918,100,100,221.9,1,0,51.7,-32.4,-0.8,2.6,2.6,-2.1,2.1,0,110.62,0,0,0,1,1
2.1,1.3,66,-114,-1,0,-75.20323775,1.2,763.2,0.27,0.66,-2.12,2011.8,0:03:40,1554.5,2,356,234,,0,15:03:55,10:59:38,5/24/2022,32.2298678,-110.911316,12SWA 08355 65918,100,100,221.9,1,0,51.7,-32.4,-0.8,2.6,2.6,-2.1,2.1,0,110.66,0,0,0,1,1
2.1,1.3,66,-114,0,0,-75.20323775,0.4,762.4,0.47,0.66,-2.12,2037.8,0:03:41,1579.9,2,356,234,,0,15:03:55,10:59:39,5/24/2022,32.2298678,-110.911316,12SWA 08355 65918,100,100,221.9,1,0,51.7,-32.4,-0.8,2.6,2.6,-2.1,2.1,0,110.7,0,0,0,1,1
2,1.2,66,-114,0,0,-75.20323775,0.4,762.4,0.86,0.66,-2.12,2058.9,0:03:42,1600.5,2,356,235,,0,15:03:55,10:59:40,5/24/2022,32.2298678,-110.911316,12SWA 08355 65918,100,100,221.9,1,0,51.7,-32.4,-0.8,2.6,2.6,-2.1,2.1,0,110.73,0,0,0,1,1
2.1,1.2,66,-114,0,0,-75.20323775,0.7,762.7,-0.11,0.66,-2.12,2090.8,0:03:43,1631.6,2,356,235,,0,15:03:55,10:59:41,5/24/2022,32.2298678,-110.911316,12SWA 08355 65918,100,100,221.9,1,0,51.7,-32.4,-0.8,2.6,2.6,-2.1,2.1,0,110.77,0,0,0,1,1
2.1,1.2,66,-114,0,0,-75.20323775,0.7,762.7,-0.16,0.66,-2.12,2111.4,0:03:44,1651.8,2,356,235,,0,15:03:55,10:59:42,5/24/2022,32.2298678,-110.911316,12SWA 08355 65918,100,100,221.9,1,0,51.7,-32.4,-0.8,2.6,2.6,-2.1,2.1,0,110.82,0,0,0,1,1
2,1.2,66,-114,0,0,-75.20323775,0.6,762.5,-0.2,0.66,-2.12,2137.9,0:03:45,1677.7,2,356,235,,0,15:03:55,10:59:43,5/24/2022,32.2298678,-110.911316,12SWA 08355 65918,100,100,221.9,1,0,51.7,-32.4,-0.8,2.6,2.6,-2.1,2.1,0,110.84,0,0,0,1,1
2,1.2,66,-114,0,0,-75.20323775,1,762.9,-0.39,0.66,-2.12,2159.4,0:03:46,1698.9,2,356,235,,0,15:03:55,10:59:44,5/24/2022,32.2298678,-110.911316,12SWA 08355 65918,100,100,221.9,1,0,51.7,-32.4,-0.8,2.6,2.6,-2.1,2.1,0,110.86,0,0,0,1,1
2,1.2,66,-114,0,0,-75.20323775,0.5,762.5,0.08,0.66,-2.12,2190.8,0:03:47,1729.7,2,356,236,,0,15:03:55,10:59:45,5/24/2022,32.2298678,-110.911316,12SWA 08355 65918,100,100,221.9,1,0,51.7,-32.4,-0.8,2.6,2.6,-2.1,2.1,0,110.89,0,0,0,1,1
2,1.2,66,-114,0,0,-75.20323775,0.5,762.5,-0.52,0.66,-2.12,2211.9,0:03:48,1750.4,2,356,236,,0,15:03:55,10:59:46,5/24/2022,32.2298678,-110.911316,12SWA 08355 65918,100,100,221.9,1,0,51.7,-32.4,-0.8,2.6,2.6,-2.1,2.1,0,110.89,0,0,0,1,1
2,1.2,66,-114,0,0,-75.20323775,1.2,763.2,0.45,0.66,-2.12,2237.4,0:03:49,1775.4,2,356,236,,0,15:03:55,10:59:47,5/24/2022,32.2298678,-110.911316,12SWA 08355 65918,100,100,221.9,1,0,51.7,-32.4,-0.8,2.6,2.6,-2.1,2.1,0,110.93,0,0,0,1,1
2,1.2,66,-114,0,0,-75.20323775,0.3,762.3,0.1,0.66,-2.12,2258.5,0:03:50,1796.1,2,356,236,,0,15:03:55,10:59:48,5/24/2022,32.2298678,-110.911316,12SWA 08355 65918,100,100,221.9,1,0,51.7,-32.4,-0.8,2.6,2.6,-2.1,2.1,0,110.91,0,0,0,1,1
2,1.2,66,-114,0,0,-75.20323775,0.7,762.7,0.23,0.66,-2.12,2280.1,0:03:51,1817.3,2,356,236,,0,15:03:55,10:59:49,5/24/2022,32.2298678,-110.911316,12SWA 08355 65918,100,100,221.9,1,0,51.7,-32.4,-0.8,2.6,2.6,-2.1,2.1,0,110.95,0,0,0,1,1
2,1.2,66,-114,0,0,-75.20323775,0.8,762.8,-0.36,0.66,-2.12,2311.4,0:03:52,1848.1,2,356,236,,0,15:03:55,10:59:50,5/24/2022,32.2298678,-110.911316,12SWA 08355 65918,100,100,221.9,1,0,51.7,-32.4,-0.8,2.6,2.6,-2.1,2.1,0,110.98,0,0,0,1,1
2,1.2,66,-114,0,0,-75.20323775,0.2,762.1,-0.6,0.66,-2.12,2337.4,0:03:53,1873.7,2,356,236,,0,15:03:55,10:59:51,5/24/2022,32.2298678,-110.911316,12SWA 08355 65918,100,100,221.9,1,0,51.7,-32.4,-0.8,2.6,2.6,-2.1,2.1,0,110.98,0,0,0,1,1
2,1.1,66,-114,0,0,-75.20323775,0.8,762.8,-0.61,0.66,-2.12,2359,0:03:54,1894.9,2,356,237,,0,15:03:55,10:59:52,5/24/2022,32.2298678,-110.911316,12SWA 08355 65918,100,100,221.9,1,0,51.7,-32.4,-0.8,2.6,2.6,-2.1,2.1,0,111.02,0,0,0,1,1
2,1.2,66,-114,0,0,-75.20323775,0.2,762.2,-0.47,0.66,-2.12,2379.6,0:03:55,1915.2,2,356,237,,0,15:03:55,10:59:53,5/24/2022,32.2298678,-110.911316,12SWA 08355 65918,100,100,221.9,1,0,51.7,-32.4,-0.8,2.6,2.6,-2.1,2.1,0,111.04,0,0,0,1,1
2,1.1,67,-113,1,0,-75.20323775,0.8,762.8,0,0.66,-2.12,2411.5,0:03:56,1946.5,2,356,237,,0,15:03:55,10:59:54,5/24/2022,32.2298678,-110.911316,12SWA 08355 65918,100,100,221.9,1,0,51.7,-32.4,-0.8,2.6,2.6,-2.1,2.1,0,111.04,0,0,0,1,1
2.1,1,67,-113,0,0,-75.20323775,-0.1,761.9,0.03,0.66,-2.12,2437.5,0:03:57,1972.1,2,356,237,,0,15:03:55,10:59:55,5/24/2022,32.2298678,-110.911316,12SWA 08355 65918,100,100,221.9,1,0,51.7,-32.4,-0.8,2.6,2.6,-2.1,2.1,0,111.09,0,0,0,1,1
2.1,1,67,-113,0,0,-75.20323775,0.3,762.2,-0.51,0.66,-2.12,2458.6,0:03:58,1992.9,2,356,237,,0,15:03:55,10:59:56,5/24/2022,32.2298678,-110.911316,12SWA 08355 65918,100,100,221.9,1,0,51.7,-32.4,-0.8,2.6,2.6,-2.1,2.1,0,111.13,0,0,0,1,1
2.1,1,67,-113,0,0,-75.20323775,0.5,762.5,-0.28,0.66,-2.12,2479.1,0:03:59,2013.2,2,356,237,,0,15:03:55,10:59:57,5/24/2022,32.2298678,-110.911316,12SWA 08355 65918,100,100,221.9,1,0,51.7,-32.4,-0.8,2.6,2.6,-2.1,2.1,0,111.15,0,0,0,1,1
2.1,0.9,67,-113,0,0,-75.20323775,0.3,762.3,-0.42,0.66,-2.12,2499.7,0:04:00,2033.5,2,356,237,,0,15:03:55,10:59:58,5/24/2022,32.2298678,-110.911316,12SWA 08355 65918,100,100,221.9,1,0,51.7,-32.4,-0.8,2.6,2.6,-2.1,2.1,0,111.18,0,0,0,1,1
2.1,0.9,67,-113,0,0,-75.20323775,0.1,762.1,0.05,0.66,-2.12,2526.2,0:04:01,2059.6,2,356,237,,0,15:03:55,10:59:59,5/24/2022,32.2298678,-110.911316,12SWA 08355 65918,100,100,221.9,1,0,51.7,-32.4,-0.8,2.6,2.6,-2.1,2.1,0,111.22,0,0,0,1,1
2.1,0.9,67,-113,0,0,-75.20323775,0.5,762.4,-0.32,0.66,-2.12,2558.1,0:04:02,2091,2,356,238,,0,15:03:55,11:00:00,5/24/2022,32.2298678,-110.911316,12SWA 08355 65918,100,100,221.9,1,0,51.7,-32.4,-0.8,2.6,2.6,-2.1,2.1,0,111.25,0,0,0,1,1
2.2,0.9,67,-113,0,0,-75.20323775,0.9,762.9,0.18,0.66,-2.12,2579.7,0:04:03,2112.2,2,356,238,,0,15:03:55,11:00:01,5/24/2022,32.2298678,-110.911316,12SWA 08355 65918,100,100,221.9,1,0,51.7,-32.4,-0.8,2.6,2.6,-2.1,2.1,0,111.27,0,0,0,1,1
2.2,0.9,67,-113,0,0,-75.20323775,0.8,762.8,-0.57,0.66,-2.12,2600.3,0:04:04,2132.5,2,356,238,,0,15:03:55,11:00:02,5/24/2022,32.2298678,-110.911316,12SWA 08355 65918,100,100,221.9,1,0,51.7,-32.4,-0.8,2.6,2.6,-2.1,2.1,0,111.27,0,0,0,1,1
2.2,0.9,67,-113,0,0,-75.20323775,0.8,762.8,-0.03,0.66,-2.12,2637,0:04:05,2168.8,2,356,238,,0,15:03:55,11:00:03,5/24/2022,32.2298678,-110.911316,12SWA 08355 65918,100,100,221.9,1,0,51.7,-32.4,-0.8,2.6,2.6,-2.1,2.1,0,111.29,0,0,0,1,1
2.2,0.9,67,-113,0,0,-75.20323775,1,763,-0.13,0.66,-2.12,2647.3,0:04:06,2178.9,2,356,238,,0,15:03:55,11:00:04,5/24/2022,32.2298678,-110.911316,12SWA 08355 65918,100,100,221.9,1,0,51.7,-32.4,-0.8,2.6,2.6,-2.1,2.1,0,111.31,0,0,0,1,1
2.3,0.9,67,-113,0,0,-75.20323775,1.1,763.1,0.09,0.66,-2.12,2678.2,0:04:07,2209.4,2,356,238,,0,15:03:55,11:00:05,5/24/2022,32.2298678,-110.911316,12SWA 08355 65918,100,100,221.9,1,0,51.7,-32.4,-0.8,2.6,2.6,-2.1,2.1,0,111.34,0,0,0,1,1
2.3,0.8,67,-113,0,0,-75.20323775,1.1,763.1,-0.27,0.66,-2.12,2699.3,0:04:08,2230.2,2,356,238,,0,15:03:55,11:00:06,5/24/2022,32.2298678,-110.911316,12SWA 08355 65918,100,100,221.9,1,0,51.7,-32.4,-0.8,2.6,2.6,-2.1,2.1,0,111.38,0,0,0,1,1
2.2,0.8,67,-113,0,0,-75.20323775,1.3,763.3,0.26,0.66,-2.12,2726.3,0:04:09,2256.8,2,356,238,,0,15:03:55,11:00:07,5/24/2022,32.2298678,-110.911316,12SWA 08355 65918,100,100,221.9,1,0,51.7,-32.4,-0.8,2.6,2.6,-2.1,2.1,0,111.4,0,0,0,1,1
2.2,0.9,67,-113,0,0,-75.20323775,0.6,762.6,0.1,0.66,-2.12,2747.4,0:04:10,2277.6,2,356,238,,0,15:03:55,11:00:08,5/24/2022,32.2298678,-110.911316,12SWA 08355 65918,100,100,221.9,1,0,51.7,-32.4,-0.8,2.6,2.6,-2.1,2.1,0,111.43,0,0,0,1,1
2.2,0.9,67,-113,0,0,-75.20323775,1.5,763.5,0.33,0.66,-2.12,2778.8,0:04:11,2308.5,2,356,239,,0,15:03:55,11:00:09,5/24/2022,32.2298678,-110.911316,12SWA 08355 65918,100,100,221.9,1,0,51.7,-32.4,-0.8,2.6,2.6,-2.1,2.1,0,111.43,0,0,0,1,1
2.2,0.9,67,-113,0,0,-75.20323775,1.1,763.1,0.54,0.66,-2.12,2800.3,0:04:12,2329.8,2,356,239,,0,15:03:55,11:00:10,5/24/2022,32.2298678,-110.911316,12SWA 08355 65918,100,100,221.9,1,0,51.7,-32.4,-0.8,2.6,2.6,-2.1,2.1,0,111.43,0,0,0,1,1
2.2,0.9,67,-113,0,0,-75.20323775,0.5,762.5,0.11,0.66,-2.12,2821.9,0:04:13,2351.1,2,356,239,,0,15:03:55,11:00:11,5/24/2022,32.2298678,-110.911316,12SWA 08355 65918,100,100,221.9,1,0,51.7,-32.4,-0.8,2.6,2.6,-2.1,2.1,0,111.45,0,0,0,1,1
2.2,0.9,67,-113,0,0,-75.20323775,1.6,763.6,0.37,0.66,-2.12,2848.9,0:04:14,2377.7,2,356,239,,0,15:03:55,11:00:12,5/24/2022,32.2298678,-110.911316,12SWA 08355 65918,100,100,221.9,1,0,51.7,-32.4,-0.8,2.6,2.6,-2.1,2.1,0,111.45,0,0,0,1,1
