Roll (deg),Pitch (deg),Heading (deg),Yaw (deg),Yaw Rate (deg/s),Velocity (m/s),Steering Angle (deg),Relative Altitude (m),Altitude AMSL (m),Altitude Tuning,Altitude Tuning Setpoint,X-Track Error (m),Travelled Distance (m),Run Time,Distance To Home (m),Mission Index,Heading To Next WP (deg),Heading To Home (deg),Distance To GCS (m),Throttle (%),Hobbs,Clock Time,Clock Date,GPS Latitude,GPS Longitude,GPS MGRS,GPS HDOP,GPS VDOP,GPS Course,Satellite Locks,Satellite Count,Longitudinal Position (m),Lateral Position (m),Vertical Position (m),Longitudinal Velocity (m/s),Absolute Longitudinal Velocity (m/s),Lateral Velocity (m/s),Absolute Lateral Velocity (m/s),Vertical Velocity (m/s),Temperature (F),Longitudinal Vibration,Lateral Vibration,Vertical Vibration,Data Type
1.6,1,46,-134,0,3.3,-75.20323775,1.1,763,0.31,0.66,-2.12,248.7,0:02:32,34.4,2,356,144,,0,15:03:55,10:58:31,5/24/2022,32.2318416,-110.9092345,12SWA 08551 66137,100,100,221.9,1,0,38.4,-21,-1,2.5,2.5,-2.2,2.2,-0.1,107.8,0,0,0,1
1.7,1,47,-133,1,3.3,-75.20323775,1.1,763,0.3,0.66,-2.12,251.4,0:02:33,36.8,2,356,144,,0,15:03:55,10:58:32,5/24/2022,32.2315949,-110.9094947,12SWA 08527 66110,100,100,221.9,1,0,40.2,-22.6,-0.9,2.5,2.5,-2.1,2.1,0,107.8,0,0,0,1
1.7,1.1,47,-133,0,3.3,-75.20323775,1.1,763.1,0.37,0.66,-2.12,253.8,0:02:34,39.4,2,356,144,,0,15:03:55,10:58:33,5/24/2022,32.2313481,-110.9097549,12SWA 08502 66082,100,100,221.9,1,0,42.2,-24.3,-1,2.5,2.5,-2.1,2.1,-0.1,107.83,0,0,0,1
1.7,1.1,48,-132,1,3.3,-75.20323775,1.1,763.1,0.33,0.66,-2.12,259.2,0:02:35,43.4,2,356,143,,0,15:03:55,10:58:34,5/24/2022,32.2312248,-110.909885,12SWA 08490 66069,100,100,221.9,1,0,44.2,-26.1,-1,2.5,2.5,-2.1,2.1,0,107.83,0,0,0,1
1.7,1.2,48,-132,0,3.3,-75.20323775,1,763,0.25,0.66,-2.12,261.9,0:02:36,46.2,2,356,143,,0,15:03:55,10:58:35,5/24/2022,32.2309781,-110.9101452,12SWA 08465 66041,100,100,221.9,1,0,47.3,-28.8,-0.9,2.5,2.5,-2.1,2.1,0,107.85,0,0,0,1
1.7,1.2,49,-131,1,3.3,-75.20323775,1,763,0.22,0.66,-2.12,264.8,0:02:38,49,2,356,143,,0,15:03:55,10:58:36,5/24/2022,32.2308136,-110.9103187,12SWA 08449 66023,100,100,221.9,1,0,49.5,-30.6,-0.9,2.5,2.5,-2.1,2.1,0,107.85,0,0,0,1
0,-0.7,28,-152,-21,0,-75.20323775,0.9,762.9,0.17,0.66,-2.12,267.6,0:02:38,51.9,2,356,143,,0,15:03:55,10:58:37,5/24/2022,32.2305668,-110.9105789,12SWA 08425 65996,100,100,221.9,1,0,51.7,-32.4,-0.8,2.6,2.6,-2.1,2.1,0,107.89,0,0,0,1
0.2,-0.4,34,-146,6,0,-75.20323775,1.2,763.2,-0.46,0.66,-2.12,534.2,0:02:39,306.7,2,356,166,,0,15:03:55,10:58:38,5/24/2022,32.2303201,-110.910839,12SWA 08400 65968,100,100,221.9,1,0,51.7,-32.4,-0.8,2.6,2.6,-2.1,2.1,0,107.92,0,0,0,1
0.4,-0.3,38,-142,4,0,-75.20323775,0.8,762.8,-0.17,0.66,-2.12,560.7,0:02:40,323.1,2,356,170,,0,15:03:55,10:58:39,5/24/2022,32.2301968,-110.9109691,12SWA 08388 65955,100,100,221.9,1,0,51.7,-32.4,-0.8,2.6,2.6,-2.1,2.1,0,107.92,0,0,0,1
0.7,-0.2,42,-138,4,0,-75.20323775,0.5,762.5,-0.27,0.66,-2.12,581.8,0:02:41,335.9,2,356,173,,0,15:03:55,10:58:40,5/24/2022,32.22995,-110.9112293,12SWA 08363 65927,100,100,221.9,1,0,51.7,-32.4,-0.8,2.6,2.6,-2.1,2.1,0,107.94,0,0,0,1
0.9,-0.1,46,-134,4,0,-75.20323775,1.5,763.5,0.7,0.66,-2.12,602.5,0:02:42,348.3,2,356,175,,0,15:03:55,10:58:41,5/24/2022,32.2298678,-110.911316,12SWA 08355 65918,100,100,221.9,1,0,51.7,-32.4,-0.8,2.6,2.6,-2.1,2.1,0,107.98,0,0,0,1
1.1,0.1,50,-130,4,0,-75.20323775,0.9,762.9,1.03,0.66,-2.12,623.6,0:02:43,361,2,356,178,,0,15:03:55,10:58:42,5/24/2022,32.2298678,-110.911316,12SWA 08355 65918,100,100,221.9,1,0,51.7,-32.4,-0.8,2.6,2.6,-2.1,2.1,0,108.01,0,0,0,1
1.3,0.2,52,-128,2,0,-75.20323775,0.7,762.6,0.85,0.66,-2.12,649.6,0:02:44,376.7,2,356,181,,0,15:03:55,10:58:43,5/24/2022,32.2298678,-110.911316,12SWA 08355 65918,100,100,221.9,1,0,51.7,-32.4,-0.8,2.6,2.6,-2.1,2.1,0,108.05,0,0,0,1
1.5,0.3,55,-125,3,0,-75.20323775,0.3,762.3,0.15,0.66,-2.12,680.9,0:02:45,396,2,356,185,,0,15:03:55,10:58:44,5/24/2022,32.2298678,-110.911316,12SWA 08355 65918,100,100,221.9,1,0,51.7,-32.4,-0.8,2.6,2.6,-2.1,2.1,0,108.07,0,0,0,1
1.6,0.4,57,-123,2,0,-75.20323775,0.6,762.6,0.47,0.66,-2.12,702,0:02:46,409.1,2,356,187,,0,15:03:55,10:58:45,5/24/2022,32.2298678,-110.911316,12SWA 08355 65918,100,100,221.9,1,0,51.7,-32.4,-0.8,2.6,2.6,-2.1,2.1,0,108.12,0,0,0,1
1.8,0.5,58,-122,1,0,-75.20323775,1,763,0.41,0.66,-2.12,722.6,0:02:48,422.2,2,356,190,,0,15:03:55,10:58:46,5/24/2022,32.2298678,-110.911316,12SWA 08355 65918,100,100,221.9,1,0,51.7,-32.4,-0.8,2.6,2.6,-2.1,2.1,0,108.16,0,0,0,1
2,0.6,60,-120,2,0,-75.20323775,1,763,0.6,0.66,-2.12,749.1,0:02:48,439.3,2,356,192,,0,15:03:55,10:58:47,5/24/2022,32.2298678,-110.911316,12SWA 08355 65918,100,100,221.9,1,0,51.7,-32.4,-0.8,2.6,2.6,-2.1,2.1,0,108.18,0,0,0,1
2.1,0.7,62,-118,2,0,-75.20323775,1.7,763.7,-0.63,0.66,-2.12,770.2,0:02:49,453.2,2,356,194,,0,15:03:55,10:58:48,5/24/2022,32.2298678,-110.911316,12SWA 08355 65918,100,100,221.9,1,0,51.7,-32.4,-0.8,2.6,2.6,-2.1,2.1,0,108.23,0,0,0,1
2.2,0.8,63,-117,1,0,-75.20323775,0.2,762.2,-0.55,0.66,-2.12,802.1,0:02:50,474.7,2,356,197,,0,15:03:55,10:58:49,5/24/2022,32.2298678,-110.911316,12SWA 08355 65918,100,100,221.9,1,0,51.7,-32.4,-0.8,2.6,2.6,-2.1,2.1,0,108.28,0,0,0,1
2.3,0.8,64,-116,1,0,-75.20323775,1.8,763.8,-0.11,0.66,-2.12,822.7,0:02:51,489,2,356,199,,0,15:03:55,10:58:50,5/24/2022,32.2298678,-110.911316,12SWA 08355 65918,100,100,221.9,1,0,51.7,-32.4,-0.8,2.6,2.6,-2.1,2.1,0,108.32,0,0,0,1
2.4,0.9,65,-115,1,0,-75.20323775,0.6,762.6,0.3,0.66,-2.12,849.2,0:02:52,507.7,2,356,201,,0,15:03:55,10:58:51,5/24/2022,32.2298678,-110.911316,12SWA 08355 65918,100,100,221.9,1,0,51.7,-32.4,-0.8,2.6,2.6,-2.1,2.1,0,108.39,0,0,0,1
2.4,1,65,-115,0,0,-75.20323775,1.1,763.1,0.64,0.66,-2.12,870.2,0:02:54,522.9,2,356,203,,0,15:03:55,10:58:52,5/24/2022,32.2298678,-110.911316,12SWA 08355 65918,100,100,221.9,1,0,51.7,-32.4,-0.8,2.6,2.6,-2.1,2.1,0,108.43,0,0,0,1
2.5,1.1,66,-114,1,0,-75.20323775,0.9,762.9,0.13,0.66,-2.12,900.6,0:02:55,545.4,2,356,205,,0,15:03:55,10:58:53,5/24/2022,32.2298678,-110.911316,12SWA 08355 65918,100,100,221.9,1,0,51.7,-32.4,-0.8,2.6,2.6,-2.1,2.1,0,108.5,0,0,0,1
2.6,1.1,66,-114,0,0,-75.20323775,1.3,763.2,0.86,0.66,-2.12,926.6,0:02:56,565,2,356,207,,0,15:03:55,10:58:54,5/24/2022,32.2298678,-110.911316,12SWA 08355 65918,100,100,221.9,1,0,51.7,-32.4,-0.8,2.6,2.6,-2.1,2.1,0,108.55,0,0,0,1
2.6,1.2,67,-113,1,0,-75.20323775,1.8,763.7,-1.22,0.66,-2.12,947.7,0:02:57,581.2,2,356,208,,0,15:03:55,10:58:55,5/24/2022,32.2298678,-110.911316,12SWA 08355 65918,100,100,221.9,1,0,51.7,-32.4,-0.8,2.6,2.6,-2.1,2.1,0,108.59,0,0,0,1
2.7,1.3,67,-113,0,0,-75.20323775,1.8,763.8,0.37,0.66,-2.12,980.1,0:02:58,606.5,2,356,210,,0,15:03:55,10:58:56,5/24/2022,32.2298678,-110.911316,12SWA 08355 65918,100,100,221.9,1,0,51.7,-32.4,-0.8,2.6,2.6,-2.1,2.1,0,108.64,0,0,0,1
2.7,1.3,67,-113,0,0,-75.20323775,1.8,763.8,-0.35,0.66,-2.12,980.1,0:02:59,606.5,2,356,210,,0,15:03:55,10:58:57,5/24/2022,32.2298678,-110.911316,12SWA 08355 65918,100,100,221.9,1,0,51.7,-32.4,-0.8,2.6,2.6,-2.1,2.1,0,108.72,0,0,0,1
2.7,1.4,68,-112,1,0,-75.20323775,1.1,763,0.3,0.66,-2.12,1026.7,0:03:00,643.9,2,356,213,,0,15:03:55,10:58:58,5/24/2022,32.2298678,-110.911316,12SWA 08355 65918,100,100,221.9,1,0,51.7,-32.4,-0.8,2.6,2.6,-2.1,2.1,0,108.75,0,0,0,1
2.7,1.3,68,-112,0,0,-75.20323775,0.3,762.3,0.26,0.66,-2.12,1048.2,0:03:01,661.5,2,356,214,,0,15:03:55,10:58:59,5/24/2022,32.2298678,-110.911316,12SWA 08355 65918,100,100,221.9,1,0,51.7,-32.4,-0.8,2.6,2.6,-2.1,2.1,0,108.82,0,0,0,1
2.7,1.4,68,-112,0,0,-75.20323775,1.5,763.5,0.81,0.66,-2.12,1069.8,0:03:02,679.3,2,356,215,,0,15:03:55,10:59:00,5/24/2022,32.2298678,-110.911316,12SWA 08355 65918,100,100,221.9,1,0,51.7,-32.4,-0.8,2.6,2.6,-2.1,2.1,0,108.84,0,0,0,1
2.7,1.4,68,-112,0,0,-75.20323775,0.2,762.2,0.2,0.66,-2.12,1100.7,0:03:03,705.2,2,356,216,,0,15:03:55,10:59:01,5/24/2022,32.2298678,-110.911316,12SWA 08355 65918,100,100,221.9,1,0,51.7,-32.4,-0.8,2.6,2.6,-2.1,2.1,0,108.91,0,0,0,1
2.7,1.4,68,-112,0,0,-75.20323775,0.6,762.6,-0.42,0.66,-2.12,1125.7,0:03:04,726.4,2,356,217,,0,15:03:55,10:59:02,5/24/2022,32.2298678,-110.911316,12SWA 08355 65918,100,100,221.9,1,0,51.7,-32.4,-0.8,2.6,2.6,-2.1,2.1,0,108.99,0,0,0,1
2.7,1.4,68,-112,0,0,-75.20323775,0.8,762.7,-0.39,0.66,-2.12,1146.3,0:03:05,744,2,356,218,,0,15:03:55,10:59:03,5/24/2022,32.2298678,-110.911316,12SWA 08355 65918,100,100,221.9,1,0,51.7,-32.4,-0.8,2.6,2.6,-2.1,2.1,0,109.02,0,0,0,1
2.8,1.3,68,-112,0,0,-75.20323775,1.5,763.5,0.54,0.66,-2.12,1167.4,0:03:06,762.2,2,356,219,,0,15:03:55,10:59:04,5/24/2022,32.2298678,-110.911316,12SWA 08355 65918,100,100,221.9,1,0,51.7,-32.4,-0.8,2.6,2.6,-2.1,2.1,0,109.09,0,0,0,1
2.8,1.4,69,-111,1,0,-75.20323775,0.8,762.8,1.12,0.66,-2.12,1189,0:03:07,780.9,2,356,220,,0,15:03:55,10:59:05,5/24/2022,32.2298678,-110.911316,12SWA 08355 65918,100,100,221.9,1,0,51.7,-32.4,-0.8,2.6,2.6,-2.1,2.1,0,109.11,0,0,0,1
2.7,1.3,69,-111,0,0,-75.20323775,1.2,763.1,0.4,0.66,-2.12,1226.3,0:03:08,813.6,2,356,221,,0,15:03:55,10:59:06,5/24/2022,32.2298678,-110.911316,12SWA 08355 65918,100,100,221.9,1,0,51.7,-32.4,-0.8,2.6,2.6,-2.1,2.1,0,109.18,0,0,0,1
2.7,1.3,69,-111,0,0,-75.20323775,0.8,762.7,-0.11,0.66,-2.12,1246.9,0:03:09,831.8,2,356,222,,0,15:03:55,10:59:07,5/24/2022,32.2298678,-110.911316,12SWA 08355 65918,100,100,221.9,1,0,51.7,-32.4,-0.8,2.6,2.6,-2.1,2.1,0,109.24,0,0,0,1
2.7,1.3,69,-111,0,0,-75.20323775,0.3,762.2,0.4,0.66,-2.12,1267.9,0:03:10,850.6,2,356,222,,0,15:03:55,10:59:08,5/24/2022,32.2298678,-110.911316,12SWA 08355 65918,100,100,221.9,1,0,51.7,-32.4,-0.8,2.6,2.6,-2.1,2.1,0,109.27,0,0,0,1
2.7,1.3,69,-111,0,0,-75.20323775,-0.1,761.9,0.69,0.66,-2.12,1304.2,0:03:11,883.1,2,356,223,,0,15:03:55,10:59:09,5/24/2022,32.2298678,-110.911316,12SWA 08355 65918,100,100,221.9,1,0,51.7,-32.4,-0.8,2.6,2.6,-2.1,2.1,0,109.33,0,0,0,1
2.7,1.3,69,-111,0,0,-75.20323775,1.3,763.3,0.65,0.66,-2.12,1314.5,0:03:12,892.4,2,356,224,,0,15:03:55,10:59:10,5/24/2022,32.2298678,-110.911316,12SWA 08355 65918,100,100,221.9,1,0,51.7,-32.4,-0.8,2.6,2.6,-2.1,2.1,0,109.4,0,0,0,1
2.7,1.3,69,-111,0,0,-75.20323775,0.8,762.7,-0.01,0.66,-2.12,1346.4,0:03:13,921.3,2,356,224,,0,15:03:55,10:59:11,5/24/2022,32.2298678,-110.911316,12SWA 08355 65918,100,100,221.9,1,0,51.7,-32.4,-0.8,2.6,2.6,-2.1,2.1,0,109.42,0,0,0,1
2.7,1.3,69,-111,0,0,-75.20323775,1.9,763.9,1.14,0.66,-2.12,1367,0:03:14,940,2,356,225,,0,15:03:55,10:59:12,5/24/2022,32.2298678,-110.911316,12SWA 08355 65918,100,100,221.9,1,0,51.7,-32.4,-0.8,2.6,2.6,-2.1,2.1,0,109.49,0,0,0,1
2.6,1.3,69,-111,0,0,-75.20323775,1,763,0.22,0.66,-2.12,1393.5,0:03:15,964.3,2,356,226,,0,15:03:55,10:59:13,5/24/2022,32.2298678,-110.911316,12SWA 08355 65918,100,100,221.9,1,0,51.7,-32.4,-0.8,2.6,2.6,-2.1,2.1,0,109.51,0,0,0,1
2.6,1.3,68,-112,-1,0,-75.20323775,1.6,763.5,0.8,0.66,-2.12,1424.4,0:03:16,992.7,2,356,226,,0,15:03:55,10:59:14,5/24/2022,32.2298678,-110.911316,12SWA 08355 65918,100,100,221.9,1,0,51.7,-32.4,-0.8,2.6,2.6,-2.1,2.1,0,109.58,0,0,0,1
2.6,1.3,68,-112,0,0,-75.20323775,0.8,762.8,0.08,0.66,-2.12,1445.5,0:03:17,1012.3,2,356,227,,0,15:03:55,10:59:15,5/24/2022,32.2298678,-110.911316,12SWA 08355 65918,100,100,221.9,1,0,51.7,-32.4,-0.8,2.6,2.6,-2.1,2.1,0,109.63,0,0,0,1
2.6,1.3,68,-112,0,0,-75.20323775,0.9,762.9,1.05,0.66,-2.12,1471.4,0:03:18,1036.4,2,356,227,,0,15:03:55,10:59:16,5/24/2022,32.2298678,-110.911316,12SWA 08355 65918,100,100,221.9,1,0,51.7,-32.4,-0.8,2.6,2.6,-2.1,2.1,0,109.67,0,0,0,1
2.5,1.3,68,-112,0,0,-75.20323775,0.7,762.7,0.33,0.66,-2.12,1492,0:03:19,1055.6,2,356,228,,0,15:03:55,10:59:17,5/24/2022,32.2298678,-110.911316,12SWA 08355 65918,100,100,221.9,1,0,51.7,-32.4,-0.8,2.6,2.6,-2.1,2.1,0,109.74,0,0,0,1
2.5,1.3,68,-112,0,0,-75.20323775,1.1,763,0.28,0.66,-2.12,1512.6,0:03:20,1074.9,2,356,228,,0,15:03:55,10:59:18,5/24/2022,32.2298678,-110.911316,12SWA 08355 65918,100,100,221.9,1,0,51.7,-32.4,-0.8,2.6,2.6,-2.1,2.1,0,109.78,0,0,0,1
2.5,1.3,68,-112,0,0,-75.20323775,1,763,0.72,0.66,-2.12,1548.9,0:03:21,1109,2,356,229,,0,15:03:55,10:59:19,5/24/2022,32.2298678,-110.911316,12SWA 08355 65918,100,100,221.9,1,0,51.7,-32.4,-0.8,2.6,2.6,-2.1,2.1,0,109.83,0,0,0,1
2.4,1.3,68,-112,0,0,-75.20323775,0.6,762.6,-0.14,0.66,-2.12,1570,0:03:22,1128.9,2,356,229,,0,15:03:55,10:59:20,5/24/2022,32.2298678,-110.911316,12SWA 08355 65918,100,100,221.9,1,0,51.7,-32.4,-0.8,2.6,2.6,-2.1,2.1,0,109.9,0,0,0,1
2.4,1.4,68,-112,0,0,-75.20323775,1.1,763.1,0.34,0.66,-2.12,1591.1,0:03:23,1148.9,2,356,229,,0,15:03:55,10:59:21,5/24/2022,32.2298678,-110.911316,12SWA 08355 65918,100,100,221.9,1,0,51.7,-32.4,-0.8,2.6,2.6,-2.1,2.1,0,109.96,0,0,0,1
2.5,1.4,68,-112,0,0,-75.20323775,1.3,763.3,-0.06,0.66,-2.12,1611.7,0:03:24,1168.4,2,356,230,,0,15:03:55,10:59:22,5/24/2022,32.2298678,-110.911316,12SWA 08355 65918,100,100,221.9,1,0,51.7,-32.4,-0.8,2.6,2.6,-2.1,2.1,0,110.01,0,0,0.1,1
2.4,1.4,67,-113,-1,0,-75.20323775,0.4,762.4,-0.29,0.66,-2.12,1648,0:03:25,1202.9,2,356,230,,0,15:03:55,10:59:23,5/24/2022,32.2298678,-110.911316,12SWA 08355 65918,100,100,221.9,1,0,51.7,-32.4,-0.8,2.6,2.6,-2.1,2.1,0,110.07,0,0,0,1
2.3,1.3,67,-113,0,0,-75.20323775,1.2,763.2,-0.12,0.66,-2.12,1668.6,0:03:26,1222.6,2,356,231,,0,15:03:55,10:59:24,5/24/2022,32.2298678,-110.911316,12SWA 08355 65918,100,100,221.9,1,0,51.7,-32.4,-0.8,2.6,2.6,-2.1,2.1,0,110.08,0,0,0,1
2.3,1.3,67,-113,0,0,-75.20323775,0.5,762.5,0.48,0.66,-2.12,1688.7,0:03:27,1241.8,2,356,231,,0,15:03:55,10:59:25,5/24/2022,32.2298678,-110.911316,12SWA 08355 65918,100,100,221.9,1,0,51.7,-32.4,-0.8,2.6,2.6,-2.1,2.1,0,110.12,0,0,0,1
2.3,1.3,67,-113,0,0,-75.20323775,1.2,763.2,0.24,0.66,-2.12,1714.7,0:03:28,1266.7,2,356,231,,0,15:03:55,10:59:26,5/24/2022,32.2298678,-110.911316,12SWA 08355 65918,100,100,221.9,1,0,51.7,-32.4,-0.8,2.6,2.6,-2.1,2.1,0,110.19,0,0,0,1
2.3,1.3,67,-113,0,0,-75.20323775,1.3,763.2,0.38,0.66,-2.12,1734.8,0:03:29,1286,2,356,231,,0,15:03:55,10:59:27,5/24/2022,32.2298678,-110.911316,12SWA 08355 65918,100,100,221.9,1,0,51.7,-32.4,-0.8,2.6,2.6,-2.1,2.1,0,110.21,0,0,0,1
2.2,1.3,67,-113,0,0,-75.20323775,1,763,0.22,0.66,-2.12,1766.6,0:03:30,1316.7,2,356,232,,0,15:03:55,10:59:28,5/24/2022,32.2298678,-110.911316,12SWA 08355 65918,100,100,221.9,1,0,51.7,-32.4,-0.8,2.6,2.6,-2.1,2.1,0,110.28,0,0,0,1
2.2,1.4,67,-113,0,0,-75.20323775,0.4,762.4,-0.33,0.66,-2.12,1792.6,0:03:31,1341.7,2,356,232,,0,15:03:55,10:59:29,5/24/2022,32.2298678,-110.911316,12SWA 08355 65918,100,100,221.9,1,0,51.7,-32.4,-0.8,2.6,2.6,-2.1,2.1,0,110.34,0,0,0,1
2.2,1.4,67,-113,0,0,-75.20323775,1.6,763.5,-0.11,0.66,-2.12,1814.2,0:03:32,1362.5,2,356,232,,0,15:03:55,10:59:30,5/24/2022,32.2298678,-110.911316,12SWA 08355 65918,100,100,221.9,1,0,51.7,-32.4,-0.8,2.6,2.6,-2.1,2.1,0,110.35,0,0,0,1
2.2,1.4,67,-113,0,0,-75.20323775,0.9,762.9,-0.07,0.66,-2.12,1835.8,0:03:33,1383.4,2,356,233,,0,15:03:55,10:59:31,5/24/2022,32.2298678,-110.911316,12SWA 08355 65918,100,100,221.9,1,0,51.7,-32.4,-0.8,2.6,2.6,-2.1,2.1,0,110.43,0,0,0,1
2.1,1.4,67,-113,0,0,-75.20323775,0.7,762.6,0.23,0.66,-2.12,1856.4,0:03:34,1403.3,2,356,233,,0,15:03:55,10:59:32,5/24/2022,32.2298678,-110.911316,12SWA 08355 65918,100,100,221.9,1,0,51.7,-32.4,-0.8,2.6,2.6,-2.1,2.1,0,110.44,0,0,0,1
2.1,1.4,67,-113,0,0,-75.20323775,0.8,762.8,0.06,0.66,-2.12,1892.2,0:03:35,1438,2,356,233,,0,15:03:55,10:59:33,5/24/2022,32.2298678,-110.911316,12SWA 08355 65918,100,100,221.9,1,0,51.7,-32.4,-0.8,2.6,2.6,-2.1,2.1,0,110.46,0,0,0,1
2.1,1.4,67,-113,0,0,-75.20323775,1.1,763.1,0.02,0.66,-2.12,1913.3,0:03:36,1458.5,2,356,233,,0,15:03:55,10:59:34,5/24/2022,32.2298678,-110.911316,12SWA 08355 65918,100,100,221.9,1,0,51.7,-32.4,-0.8,2.6,2.6,-2.1,2.1,0,110.53,0,0,0,1
2.1,1.4,67,-113,0,0,-75.20323775,1,763,0.99,0.66,-2.12,1933.4,0:03:37,1478.1,2,356,234,,0,15:03:55,10:59:35,5/24/2022,32.2298678,-110.911316,12SWA 08355 65918,100,100,221.9,1,0,51.7,-32.4,-0.8,2.6,2.6,-2.1,2.1,0,110.55,0,0,0,1
2.1,1.4,67,-113,0,0,-75.20323775,1.2,763.2,0.43,0.66,-2.12,1970.1,0:03:38,1513.8,2,356,234,,0,15:03:55,10:59:36,5/24/2022,32.2298678,-110.911316,12SWA 08355 65918,100,100,221.9,1,0,51.7,-32.4,-0.8,2.6,2.6,-2.1,2.1,0,110.57,0,0,0,1
2.1,1.3,67,-113,0,0,-75.20323775,1.4,763.4,0.61,0.66,-2.12,1980.4,0:03:39,1523.9,2,356,234,,0,15:03:55,10:59:37,5/24/2022,32.2298678,-110.911316,12SWA 08355 65918,100,100,221.9,1,0,51.7,-32.4,-0.8,2.6,2.6,-2.1,2.1,0,110.62,0,0,0,1
2.1,1.3,66,-114,-1,0,-75.20323775,1.2,763.2,0.27,0.66,-2.12,2011.8,0:03:40,1554.5,2,356,234,,0,15:03:55,10:59:38,5/24/2022,32.2298678,-110.911316,12SWA 08355 65918,100,100,221.9,1,0,51.7,-32.4,-0.8,2.6,2.6,-2.1,2.1,0,110.66,0,0,0,1
2.1,1.3,66,-114,0,0,-75.20323775,0.4,762.4,0.47,0.66,-2.12,2037.8,0:03:41,1579.9,2,356,234,,0,15:03:55,10:59:39,5/24/2022,32.2298678,-110.911316,12SWA 08355 65918,100,100,221.9,1,0,51.7,-32.4,-0.8,2.6,2.6,-2.1,2.1,0,110.7,0,0,0,1
2,1.2,66,-114,0,0,-75.20323775,0.4,762.4,0.86,0.66,-2.12,2058.9,0:03:42,1600.5,2,356,235,,0,15:03:55,10:59:40,5/24/2022,32.2298678,-110.911316,12SWA 08355 65918,100,100,221.9,1,0,51.7,-32.4,-0.8,2.6,2.6,-2.1,2.1,0,110.73,0,0,0,1
2.1,1.2,66,-114,0,0,-75.20323775,0.7,762.7,-0.11,0.66,-2.12,2090.8,0:03:43,1631.6,2,356,235,,0,15:03:55,10:59:41,5/24/2022,32.2298678,-110.911316,12SWA 08355 65918,100,100,221.9,1,0,51.7,-32.4,-0.8,2.6,2.6,-2.1,2.1,0,110.77,0,0,0,1
2.1,1.2,66,-114,0,0,-75.20323775,0.7,762.7,-0.16,0.66,-2.12,2111.4,0:03:44,1651.8,2,356,235,,0,15:03:55,10:59:42,5/24/2022,32.2298678,-110.911316,12SWA 08355 65918,100,100,221.9,1,0,51.7,-32.4,-0.8,2.6,2.6,-2.1,2.1,0,110.82,0,0,0,1
2,1.2,66,-114,0,0,-75.20323775,0.6,762.5,-0.2,0.66,-2.12,2137.9,0:03:45,1677.7,2,356,235,,0,15:03:55,10:59:43,5/24/2022,32.2298678,-110.911316,12SWA 08355 65918,100,100,221.9,1,0,51.7,-32.4,-0.8,2.6,2.6,-2.1,2.1,0,110.84,0,0,0,1
2,1.2,66,-114,0,0,-75.20323775,1,762.9,-0.39,0.66,-2.12,2159.4,0:03:46,1698.9,2,356,235,,0,15:03:55,10:59:44,5/24/2022,32.2298678,-110.911316,12SWA 08355 65918,100,100,221.9,1,0,51.7,-32.4,-0.8,2.6,2.6,-2.1,2.1,0,110.86,0,0,0,1
2,1.2,66,-114,0,0,-75.20323775,0.5,762.5,0.08,0.66,-2.12,2190.8,0:03:47,1729.7,2,356,236,,0,15:03:55,10:59:45,5/24/2022,32.2298678,-110.911316,12SWA 08355 65918,100,100,221.9,1,0,51.7,-32.4,-0.8,2.6,2.6,-2.1,2.1,0,110.89,0,0,0,1
2,1.2,66,-114,0,0,-75.20323775,0.5,762.5,-0.52,0.66,-2.12,2211.9,0:03:48,1750.4,2,356,236,,0,15:03:55,10:59:46,5/24/2022,32.2298678,-110.911316,12SWA 08355 65918,100,100,221.9,1,0,51.7,-32.4,-0.8,2.6,2.6,-2.1,2.1,0,110.89,0,0,0,1
2,1.2,66,-114,0,0,-75.20323775,1.2,763.2,0.45,0.66,-2.12,2237.4,0:03:49,1775.4,2,356,236,,0,15:03:55,10:59:47,5/24/2022,32.2298678,-110.911316,12SWA 08355 65918,100,100,221.9,1,0,51.7,-32.4,-0.8,2.6,2.6,-2.1,2.1,0,110.93,0,0,0,1
2,1.2,66,-114,0,0,-75.20323775,0.3,762.3,0.1,0.66,-2.12,2258.5,0:03:50,1796.1,2,356,236,,0,15:03:55,10:59:48,5/24/2022,32.2298678,-110.911316,12SWA 08355 65918,100,100,221.9,1,0,51.7,-32.4,-0.8,2.6,2.6,-2.1,2.1,0,110.91,0,0,0,1
2,1.2,66,-114,0,0,-75.20323775,0.7,762.7,0.23,0.66,-2.12,2280.1,0:03:51,1817.3,2,356,236,,0,15:03:55,10:59:49,5/24/2022,32.2298678,-110.911316,12SWA 08355 65918,100,100,221.9,1,0,51.7,-32.4,-0.8,2.6,2.6,-2.1,2.1,0,110.95,0,0,0,1
2,1.2,66,-114,0,0,-75.20323775,0.8,762.8,-0.36,0.66,-2.12,2311.4,0:03:52,1848.1,2,356,236,,0,15:03:55,10:59:50,5/24/2022,32.2298678,-110.911316,12SWA 08355 65918,100,100,221.9,1,0,51.7,-32.4,-0.8,2.6,2.6,-2.1,2.1,0,110.98,0,0,0,1
2,1.2,66,-114,0,0,-75.20323775,0.2,762.1,-0.6,0.66,-2.12,2337.4,0:03:53,1873.7,2,356,236,,0,15:03:55,10:59:51,5/24/2022,32.2298678,-110.911316,12SWA 08355 65918,100,100,221.9,1,0,51.7,-32.4,-0.8,2.6,2.6,-2.1,2.1,0,110.98,0,0,0,1
2,1.1,66,-114,0,0,-75.20323775,0.8,762.8,-0.61,0.66,-2.12,2359,0:03:54,1894.9,2,356,237,,0,15:03:55,10:59:52,5/24/2022,32.2298678,-110.911316,12SWA 08355 65918,100,100,221.9,1,0,51.7,-32.4,-0.8,2.6,2.6,-2.1,2.1,0,111.02,0,0,0,1
2,1.2,66,-114,0,0,-75.20323775,0.2,762.2,-0.47,0.66,-2.12,2379.6,0:03:55,1915.2,2,356,237,,0,15:03:55,10:59:53,5/24/2022,32.2298678,-110.911316,12SWA 08355 65918,100,100,221.9,1,0,51.7,-32.4,-0.8,2.6,2.6,-2.1,2.1,0,111.04,0,0,0,1
2,1.1,67,-113,1,0,-75.20323775,0.8,762.8,0,0.66,-2.12,2411.5,0:03:56,1946.5,2,356,237,,0,15:03:55,10:59:54,5/24/2022,32.2298678,-110.911316,12SWA 08355 65918,100,100,221.9,1,0,51.7,-32.4,-0.8,2.6,2.6,-2.1,2.1,0,111.04,0,0,0,1
2.1,1,67,-113,0,0,-75.20323775,-0.1,761.9,0.03,0.66,-2.12,2437.5,0:03:57,1972.1,2,356,237,,0,15:03:55,10:59:55,5/24/2022,32.2298678,-110.911316,12SWA 08355 65918,100,100,221.9,1,0,51.7,-32.4,-0.8,2.6,2.6,-2.1,2.1,0,111.09,0,0,0,1
2.1,1,67,-113,0,0,-75.20323775,0.3,762.2,-0.51,0.66,-2.12,2458.6,0:03:58,1992.9,2,356,237,,0,15:03:55,10:59:56,5/24/2022,32.2298678,-110.911316,12SWA 08355 65918,100,100,221.9,1,0,51.7,-32.4,-0.8,2.6,2.6,-2.1,2.1,0,111.13,0,0,0,1
2.1,1,67,-113,0,0,-75.20323775,0.5,762.5,-0.28,0.66,-2.12,2479.1,0:03:59,2013.2,2,356,237,,0,15:03:55,10:59:57,5/24/2022,32.2298678,-110.911316,12SWA 08355 65918,100,100,221.9,1,0,51.7,-32.4,-0.8,2.6,2.6,-2.1,2.1,0,111.15,0,0,0,1
2.1,0.9,67,-113,0,0,-75.20323775,0.3,762.3,-0.42,0.66,-2.12,2499.7,0:04:00,2033.5,2,356,237,,0,15:03:55,10:59:58,5/24/2022,32.2298678,-110.911316,12SWA 08355 65918,100,100,221.9,1,0,51.7,-32.4,-0.8,2.6,2.6,-2.1,2.1,0,111.18,0,0,0,1
2.1,0.9,67,-113,0,0,-75.20323775,0.1,762.1,0.05,0.66,-2.12,2526.2,0:04:01,2059.6,2,356,237,,0,15:03:55,10:59:59,5/24/2022,32.2298678,-110.911316,12SWA 08355 65918,100,100,221.9,1,0,51.7,-32.4,-0.8,2.6,2.6,-2.1,2.1,0,111.22,0,0,0,1
2.1,0.9,67,-113,0,0,-75.20323775,0.5,762.4,-0.32,0.66,-2.12,2558.1,0:04:02,2091,2,356,238,,0,15:03:55,11:00:00,5/24/2022,32.2298678,-110.911316,12SWA 08355 65918,100,100,221.9,1,0,51.7,-32.4,-0.8,2.6,2.6,-2.1,2.1,0,111.25,0,0,0,1
2.2,0.9,67,-113,0,0,-75.20323775,0.9,762.9,0.18,0.66,-2.12,2579.7,0:04:03,2112.2,2,356,238,,0,15:03:55,11:00:01,5/24/2022,32.2298678,-110.911316,12SWA 08355 65918,100,100,221.9,1,0,51.7,-32.4,-0.8,2.6,2.6,-2.1,2.1,0,111.27,0,0,0,1
2.2,0.9,67,-113,0,0,-75.20323775,0.8,762.8,-0.57,0.66,-2.12,2600.3,0:04:04,2132.5,2,356,238,,0,15:03:55,11:00:02,5/24/2022,32.2298678,-110.911316,12SWA 08355 65918,100,100,221.9,1,0,51.7,-32.4,-0.8,2.6,2.6,-2.1,2.1,0,111.27,0,0,0,1
2.2,0.9,67,-113,0,0,-75.20323775,0.8,762.8,-0.03,0.66,-2.12,2637,0:04:05,2168.8,2,356,238,,0,15:03:55,11:00:03,5/24/2022,32.2298678,-110.911316,12SWA 08355 65918,100,100,221.9,1,0,51.7,-32.4,-0.8,2.6,2.6,-2.1,2.1,0,111.29,0,0,0,1
2.2,0.9,67,-113,0,0,-75.20323775,1,763,-0.13,0.66,-2.12,2647.3,0:04:06,2178.9,2,356,238,,0,15:03:55,11:00:04,5/24/2022,32.2298678,-110.911316,12SWA 08355 65918,100,100,221.9,1,0,51.7,-32.4,-0.8,2.6,2.6,-2.1,2.1,0,111.31,0,0,0,1
2.3,0.9,67,-113,0,0,-75.20323775,1.1,763.1,0.09,0.66,-2.12,2678.2,0:04:07,2209.4,2,356,238,,0,15:03:55,11:00:05,5/24/2022,32.2298678,-110.911316,12SWA 08355 65918,100,100,221.9,1,0,51.7,-32.4,-0.8,2.6,2.6,-2.1,2.1,0,111.34,0,0,0,1
2.3,0.8,67,-113,0,0,-75.20323775,1.1,763.1,-0.27,0.66,-2.12,2699.3,0:04:08,2230.2,2,356,238,,0,15:03:55,11:00:06,5/24/2022,32.2298678,-110.911316,12SWA 08355 65918,100,100,221.9,1,0,51.7,-32.4,-0.8,2.6,2.6,-2.1,2.1,0,111.38,0,0,0,1
2.2,0.8,67,-113,0,0,-75.20323775,1.3,763.3,0.26,0.66,-2.12,2726.3,0:04:09,2256.8,2,356,238,,0,15:03:55,11:00:07,5/24/2022,32.2298678,-110.911316,12SWA 08355 65918,100,100,221.9,1,0,51.7,-32.4,-0.8,2.6,2.6,-2.1,2.1,0,111.4,0,0,0,1
2.2,0.9,67,-113,0,0,-75.20323775,0.6,762.6,0.1,0.66,-2.12,2747.4,0:04:10,2277.6,2,356,238,,0,15:03:55,11:00:08,5/24/2022,32.2298678,-110.911316,12SWA 08355 65918,100,100,221.9,1,0,51.7,-32.4,-0.8,2.6,2.6,-2.1,2.1,0,111.43,0,0,0,1
2.2,0.9,67,-113,0,0,-75.20323775,1.5,763.5,0.33,0.66,-2.12,2778.8,0:04:11,2308.5,2,356,239,,0,15:03:55,11:00:09,5/24/2022,32.2298678,-110.911316,12SWA 08355 65918,100,100,221.9,1,0,51.7,-32.4,-0.8,2.6,2.6,-2.1,2.1,0,111.43,0,0,0,1
2.2,0.9,67,-113,0,0,-75.20323775,1.1,763.1,0.54,0.66,-2.12,2800.3,0:04:12,2329.8,2,356,239,,0,15:03:55,11:00:10,5/24/2022,32.2298678,-110.911316,12SWA 08355 65918,100,100,221.9,1,0,51.7,-32.4,-0.8,2.6,2.6,-2.1,2.1,0,111.43,0,0,0,1
2.2,0.9,67,-113,0,0,-75.20323775,0.5,762.5,0.11,0.66,-2.12,2821.9,0:04:13,2351.1,2,356,239,,0,15:03:55,11:00:11,5/24/2022,32.2298678,-110.911316,12SWA 08355 65918,100,100,221.9,1,0,51.7,-32.4,-0.8,2.6,2.6,-2.1,2.1,0,111.45,0,0,0,1
2.2,0.9,67,-113,0,0,-75.20323775,1.6,763.6,0.37,0.66,-2.12,2848.9,0:04:14,2377.7,2,356,239,,0,15:03:55,11:00:12,5/24/2022,32.2298678,-110.911316,12SWA 08355 65918,100,100,221.9,1,0,51.7,-32.4,-0.8,2.6,2.6,-2.1,2.1,0,111.45,0,0,0,1
2.1,0.9,67,-113,0,0,-75.20323775,0.3,762.2,-0.51,0.66,-2.12,2880.7,0:04:15,2409.2,2,356,239,,0,15:03:55,11:00:13,5/24/2022,32.2298678,-110.911316,12SWA 08355 65918,100,100,221.9,1,0,51.7,-32.4,-0.8,2.6,2.6,-2.1,2.1,0,111.45,0,0,0,1
2.1,1,67,-113,0,0,-75.20323775,1.3,763.2,-0.73,0.66,-2.12,2901.8,0:04:16,2430.1,2,356,239,,0,15:03:55,11:00:14,5/24/2022,32.2298678,-110.911316,12SWA 08355 65918,100,100,221.9,1,0,51.7,-32.4,-0.8,2.6,2.6,-2.1,2.1,0,111.47,0,0,0,1
2.1,1,67,-113,0,0,-75.20323775,1.4,763.4,0.2,0.66,-2.12,2922.9,0:04:17,2450.9,2,356,239,,0,15:03:55,11:00:15,5/24/2022,32.2298678,-110.911316,12SWA 08355 65918,100,100,221.9,1,0,51.7,-32.4,-0.8,2.6,2.6,-2.1,2.1,0,111.49,0,0,0,1
2.1,1,67,-113,0,0,-75.20323775,0.7,762.7,-0.32,0.66,-2.12,2944,0:04:18,2471.8,2,356,239,,0,15:03:55,11:00:16,5/24/2022,32.2298678,-110.911316,12SWA 08355 65918,100,100,221.9,1,0,51.7,-32.4,-0.8,2.6,2.6,-2.1,2.1,0,111.49,0,0,0,1
2.1,1,67,-113,0,0,-75.20323775,0.7,762.6,0,0.66,-2.12,2970,0:04:19,2497.5,2,356,239,,0,15:03:55,11:00:17,5/24/2022,32.2298678,-110.911316,12SWA 08355 65918,100,100,221.9,1,0,51.7,-32.4,-0.8,2.6,2.6,-2.1,2.1,0,111.49,0,0,0,1
2.1,1.1,67,-113,0,0,-75.20323775,0.9,762.9,0.6,0.66,-2.12,3001.9,0:04:20,2529,2,356,239,,0,15:03:55,11:00:19,5/24/2022,32.2298678,-110.911316,12SWA 08355 65918,100,100,221.9,1,0,51.7,-32.4,-0.8,2.6,2.6,-2.1,2.1,0,111.51,0,0,0,1
2.1,1.1,67,-113,0,0,-75.20323775,1.2,763.2,0.47,0.66,-2.12,3022.9,0:04:21,2549.8,2,356,239,,0,15:03:55,11:00:20,5/24/2022,32.2298678,-110.911316,12SWA 08355 65918,100,100,221.9,1,0,51.7,-32.4,-0.8,2.6,2.6,-2.1,2.1,0,111.52,0,0,0,1
2.1,1.1,67,-113,0,0,-75.20323775,0.9,762.9,0.12,0.66,-2.12,3044,0:04:22,2570.7,2,356,239,,0,15:03:55,11:00:21,5/24/2022,32.2298678,-110.911316,12SWA 08355 65918,100,100,221.9,1,0,51.7,-32.4,-0.8,2.6,2.6,-2.1,2.1,0,111.54,0,0,0,1
2.1,1,67,-113,0,0,-75.20323775,0.5,762.5,-0.61,0.66,-2.12,3070.5,0:04:23,2596.9,2,356,240,,0,15:03:55,11:00:22,5/24/2022,32.2298678,-110.911316,12SWA 08355 65918,100,100,221.9,1,0,51.7,-32.4,-0.8,2.6,2.6,-2.1,2.1,0,111.54,0,0,0,1
2.1,1,67,-113,0,0,-75.20323775,0.5,762.5,-0.26,0.66,-2.12,3101.4,0:04:24,2627.5,2,356,240,,0,15:03:55,11:00:23,5/24/2022,32.2298678,-110.911316,12SWA 08355 65918,100,100,221.9,1,0,51.7,-32.4,-0.8,2.6,2.6,-2.1,2.1,0,111.54,0,0,0,1
2.1,1,67,-113,0,0,-75.20323775,1.3,763.3,0.55,0.66,-2.12,3122.5,0:04:25,2648.4,2,356,240,,0,15:03:55,11:00:24,5/24/2022,32.2298678,-110.911316,12SWA 08355 65918,100,100,221.9,1,0,51.7,-32.4,-0.8,2.6,2.6,-2.1,2.1,0,111.56,0,0,0,1
2,1,67,-113,0,0,-75.20323775,0.6,762.6,0,0.66,-2.12,3144.1,0:04:26,2669.7,2,356,240,,0,15:03:55,11:00:25,5/24/2022,32.2298678,-110.911316,12SWA 08355 65918,100,100,221.9,1,0,51.7,-32.4,-0.8,2.6,2.6,-2.1,2.1,0,111.58,0,0,0,1
2,0.9,67,-113,0,0,-75.20323775,0.7,762.7,-0.57,0.66,-2.12,3170.5,0:04:27,2696,2,356,240,,0,15:03:55,11:00:26,5/24/2022,32.2298678,-110.911316,12SWA 08355 65918,100,100,221.9,1,0,51.7,-32.4,-0.8,2.6,2.6,-2.1,2.1,0,111.6,0,0,0,1
2.1,1,67,-113,0,0,-75.20323775,1,762.9,0.04,0.66,-2.12,3192.1,0:04:28,2717.3,2,356,240,,0,15:03:55,11:00:27,5/24/2022,32.2298678,-110.911316,12SWA 08355 65918,100,100,221.9,1,0,51.7,-32.4,-0.8,2.6,2.6,-2.1,2.1,0,111.61,0,0,0,1
2.1,1,67,-113,0,0,-75.20323775,0.4,762.4,0.42,0.66,-2.12,3224,0:04:29,2748.9,2,356,240,,0,15:03:55,11:00:28,5/24/2022,32.2298678,-110.911316,12SWA 08355 65918,100,100,221.9,1,0,51.7,-32.4,-0.8,2.6,2.6,-2.1,2.1,0,111.61,0,0,0,1
2.1,1,67,-113,0,0,-75.20323775,0.4,762.4,-0.06,0.66,-2.12,3234.8,0:04:30,2759.6,2,356,240,,0,15:03:55,11:00:29,5/24/2022,32.2298678,-110.911316,12SWA 08355 65918,100,100,221.9,1,0,51.7,-32.4,-0.8,2.6,2.6,-2.1,2.1,0,111.61,0,0,0,1
2.1,1,67,-113,0,0,-75.20323775,0.8,762.8,0.25,0.66,-2.12,3266.6,0:04:31,2791.2,2,356,240,,0,15:03:55,11:00:30,5/24/2022,32.2298678,-110.911316,12SWA 08355 65918,100,100,221.9,1,0,51.7,-32.4,-0.8,2.6,2.6,-2.1,2.1,0,111.63,0,0,0,1
2.1,1,67,-113,0,0,-75.20323775,0.8,762.8,-0.01,0.66,-2.12,3292.6,0:04:32,2817,2,356,240,,0,15:03:55,11:00:31,5/24/2022,32.2298678,-110.911316,12SWA 08355 65918,100,100,221.9,1,0,51.7,-32.4,-0.8,2.6,2.6,-2.1,2.1,0,111.65,0,0,0,1
2.1,1,67,-113,0,0,-75.20323775,1.3,763.2,0.08,0.66,-2.12,3324.5,0:04:33,2848.6,2,356,240,,0,15:03:55,11:00:32,5/24/2022,32.2298678,-110.911316,12SWA 08355 65918,100,100,221.9,1,0,51.7,-32.4,-0.8,2.6,2.6,-2.1,2.1,0,111.67,0,0,0,1
2.1,1,67,-113,0,0,-75.20323775,0.5,762.5,0.49,0.66,-2.12,3345.6,0:04:34,2869.5,2,356,240,,0,15:03:55,11:00:33,5/24/2022,32.2298678,-110.911316,12SWA 08355 65918,100,100,221.9,1,0,51.7,-32.4,-0.8,2.6,2.6,-2.1,2.1,0,111.67,0,0,0,1
2.1,1.1,67,-113,0,0,-75.20323775,1.3,763.3,-0.37,0.66,-2.12,3366.2,0:04:35,2889.9,2,356,240,,0,15:03:55,11:00:34,5/24/2022,32.2298678,-110.911316,12SWA 08355 65918,100,100,221.9,1,0,51.7,-32.4,-0.8,2.6,2.6,-2.1,2.1,0,111.69,0,0,0,1
2.1,1.1,67,-113,0,0,-75.20323775,0.7,762.7,-0.11,0.66,-2.12,3392.2,0:04:36,2915.7,2,356,240,,0,15:03:55,11:00:35,5/24/2022,32.2298678,-110.911316,12SWA 08355 65918,100,100,221.9,1,0,51.7,-32.4,-0.8,2.6,2.6,-2.1,2.1,0,111.69,0,0,0,1
2.1,1.1,67,-113,0,0,-75.20323775,0.8,762.8,0.21,0.66,-2.12,3423.1,0:04:37,2946.4,2,356,241,,0,15:03:55,11:00:36,5/24/2022,32.2298678,-110.911316,12SWA 08355 65918,100,100,221.9,1,0,51.7,-32.4,-0.8,2.6,2.6,-2.1,2.1,0,111.72,0,0,0,1
2.1,1.1,67,-113,0,0,-75.20323775,0.7,762.7,-0.05,0.66,-2.12,3443.7,0:04:38,2966.8,2,356,241,,0,15:03:55,11:00:37,5/24/2022,32.2298678,-110.911316,12SWA 08355 65918,100,100,221.9,1,0,51.7,-32.4,-0.8,2.6,2.6,-2.1,2.1,0,111.72,0,0,0,1
2,1.1,67,-113,0,0,-75.20323775,0.9,762.9,0.16,0.66,-2.12,3470.6,0:04:39,2993.6,2,356,241,,0,15:03:55,11:00:38,5/24/2022,32.2298678,-110.911316,12SWA 08355 65918,100,100,221.9,1,0,51.7,-32.4,-0.8,2.6,2.6,-2.1,2.1,0,111.72,0,0,0,1
2,1.2,67,-113,0,0,-75.20323775,0.5,762.5,-0.42,0.66,-2.12,3491.7,0:04:40,3014.5,2,356,241,,0,15:03:55,11:00:39,5/24/2022,32.2298678,-110.911316,12SWA 08355 65918,100,100,221.9,1,0,51.7,-32.4,-0.8,2.6,2.6,-2.1,2.1,0,111.74,0,0,0,1
1.9,1.2,67,-113,0,0,-75.20323775,1.3,763.3,0.54,0.66,-2.12,3523.6,0:04:41,3046.2,2,356,241,,0,15:03:55,11:00:40,5/24/2022,32.2298678,-110.911316,12SWA 08355 65918,100,100,221.9,1,0,51.7,-32.4,-0.8,2.6,2.6,-2.1,2.1,0,111.76,0,0,0,1
1.9,1.2,67,-113,0,0,-75.20323775,0.8,762.8,0.16,0.66,-2.12,3544.7,0:04:42,3067.2,2,356,241,,0,15:03:55,11:00:41,5/24/2022,32.2298678,-110.911316,12SWA 08355 65918,100,100,221.9,1,0,51.7,-32.4,-0.8,2.6,2.6,-2.1,2.1,0,111.78,0,0,0,1
1.9,1.2,67,-113,0,0,-75.20323775,-0.4,761.6,-0.25,0.66,-2.12,3566.3,0:04:43,3088.6,2,356,241,,0,15:03:55,11:00:42,5/24/2022,32.2298678,-110.911316,12SWA 08355 65918,100,100,221.9,1,0,51.7,-32.4,-0.8,2.6,2.6,-2.1,2.1,0,111.81,0,0,0,1
1.9,1.2,67,-113,0,0,-75.20323775,0.4,762.4,-0.33,0.66,-2.12,3591.8,0:04:44,3113.9,2,356,241,,0,15:03:55,11:00:43,5/24/2022,32.2298678,-110.911316,12SWA 08355 65918,100,100,221.9,1,0,51.7,-32.4,-0.8,2.6,2.6,-2.1,2.1,0,111.83,0,0,0,1
1.9,1.2,67,-113,0,0,-75.20323775,0.8,762.8,0.07,0.66,-2.12,3611.9,0:04:45,3133.9,2,356,241,,0,15:03:55,11:00:44,5/24/2022,32.2298678,-110.911316,12SWA 08355 65918,100,100,221.9,1,0,51.7,-32.4,-0.8,2.6,2.6,-2.1,2.1,0,111.83,0,0,0,1
1.9,1.2,67,-113,0,0,-75.20323775,0.7,762.7,-0.46,0.66,-2.12,3648.2,0:04:46,3170,2,356,241,,0,15:03:55,11:00:45,5/24/2022,32.2298678,-110.911316,12SWA 08355 65918,100,100,221.9,1,0,51.7,-32.4,-0.8,2.6,2.6,-2.1,2.1,0,111.85,0,0,0,1
1.8,1.3,67,-113,0,0,-75.20323775,1.1,763.1,0.34,0.66,-2.12,3669.7,0:04:47,3191.5,2,356,241,,0,15:03:55,11:00:46,5/24/2022,32.2298678,-110.911316,12SWA 08355 65918,100,100,221.9,1,0,51.7,-32.4,-0.8,2.6,2.6,-2.1,2.1,0,111.88,0,0,0,1
1.8,1.3,66,-114,-1,0,-75.20323775,0,762,-0.6,0.66,-2.12,3689.8,0:04:48,3211.5,2,356,241,,0,15:03:55,11:00:47,5/24/2022,32.2298678,-110.911316,12SWA 08355 65918,100,100,221.9,1,0,51.7,-32.4,-0.8,2.6,2.6,-2.1,2.1,0,111.9,0,0,0,1
1.8,1.3,66,-114,0,0,-75.20323775,0.4,762.4,-0.54,0.66,-2.12,3710.9,0:04:49,3232.5,2,356,241,,0,15:03:55,11:00:48,5/24/2022,32.2298678,-110.911316,12SWA 08355 65918,100,100,221.9,1,0,51.7,-32.4,-0.8,2.6,2.6,-2.1,2.1,0,111.94,0,0,0,1
1.8,1.3,66,-114,0,0,-75.20323775,0.1,762,-0.44,0.66,-2.12,3748.2,0:04:50,3269.6,2,356,241,,0,15:03:55,11:00:49,5/24/2022,32.2298678,-110.911316,12SWA 08355 65918,100,100,221.9,1,0,51.7,-32.4,-0.8,2.6,2.6,-2.1,2.1,0,111.97,0,0,0,1
1.8,1.3,66,-114,0,0,-75.20323775,0.2,762.2,-0.34,0.66,-2.12,3768.8,0:04:51,3290.1,2,356,241,,0,15:03:55,11:00:50,5/24/2022,32.2298678,-110.911316,12SWA 08355 65918,100,100,221.9,1,0,51.7,-32.4,-0.8,2.6,2.6,-2.1,2.1,0,111.99,0,0,0,1
1.9,1.3,66,-114,0,0,-75.20323775,0.1,762.1,-0.59,0.66,-2.12,3789.4,0:04:52,3310.6,2,356,241,,0,15:03:55,11:00:51,5/24/2022,32.2298678,-110.911316,12SWA 08355 65918,100,100,221.9,1,0,51.7,-32.4,-0.8,2.6,2.6,-2.1,2.1,0,112.01,0,0,0,1
1.8,1.3,66,-114,0,0,-75.20323775,0.5,762.5,-0.72,0.66,-2.12,3811,0:04:53,3332.1,2,356,241,,0,15:03:55,11:00:52,5/24/2022,32.2298678,-110.911316,12SWA 08355 65918,100,100,221.9,1,0,51.7,-32.4,-0.8,2.6,2.6,-2.1,2.1,0,112.06,0,0,0,1
1.9,1.3,66,-114,0,0,-75.20323775,0.9,762.9,-0.7,0.66,-2.12,3832.5,0:04:54,3353.5,2,356,241,,0,15:03:55,11:00:53,5/24/2022,32.2298678,-110.911316,12SWA 08355 65918,100,100,221.9,1,0,51.7,-32.4,-0.8,2.6,2.6,-2.1,2.1,0,112.08,0,0,0,1
1.8,1.4,66,-114,0,0,-75.20323775,0.5,762.5,-0.26,0.66,-2.12,3869.8,0:04:55,3390.7,2,356,241,,0,15:03:55,11:00:54,5/24/2022,32.2298678,-110.911316,12SWA 08355 65918,100,100,221.9,1,0,51.7,-32.4,-0.8,2.6,2.6,-2.1,2.1,0,112.14,0,0,0,1
1.9,1.4,66,-114,0,0,-75.20323775,0.2,762.1,-0.27,0.66,-2.12,3890.4,0:04:56,3411.2,2,356,241,,0,15:03:55,11:00:55,5/24/2022,32.2298678,-110.911316,12SWA 08355 65918,100,100,221.9,1,0,51.7,-32.4,-0.8,2.6,2.6,-2.1,2.1,0,112.17,0,0,0,1
1.8,1.4,66,-114,0,0,-75.20323775,0.6,762.6,-0.6,0.66,-2.12,3911,0:04:57,3431.7,2,356,241,,0,15:03:55,11:00:56,5/24/2022,32.2298678,-110.911316,12SWA 08355 65918,100,100,221.9,1,0,51.7,-32.4,-0.8,2.6,2.6,-2.1,2.1,0,112.19,0,0,0,1
1.8,1.3,66,-114,0,0,-75.20323775,0.4,762.4,-0.2,0.66,-2.12,3937,0:04:58,3457.6,2,356,241,,0,15:03:55,11:00:57,5/24/2022,32.2298678,-110.911316,12SWA 08355 65918,100,100,221.9,1,0,51.7,-32.4,-0.8,2.6,2.6,-2.1,2.1,0,112.21,0,0,0,1
1.8,1.4,66,-114,0,0,-75.20323775,0.4,762.4,-0.28,0.66,-2.12,3957.6,0:04:59,3478.1,2,356,241,,0,15:03:55,11:00:58,5/24/2022,32.2298678,-110.911316,12SWA 08355 65918,100,100,221.9,1,0,51.7,-32.4,-0.8,2.6,2.6,-2.1,2.1,0,112.26,0,0,0,1
1.8,1.4,66,-114,0,0,-75.20323775,-0.3,761.7,-1.05,0.66,-2.12,3989,0:05:00,3509.4,2,356,242,,0,15:03:55,11:00:59,5/24/2022,32.2298678,-110.911316,12SWA 08355 65918,100,100,221.9,1,0,51.7,-32.4,-0.8,2.6,2.6,-2.1,2.1,0,112.28,0,0,0,1
1.9,1.3,66,-114,0,0,-75.20323775,0,761.9,-0.81,0.66,-2.12,4010.5,0:05:01,3530.9,2,356,242,,0,15:03:55,11:01:00,5/24/2022,32.2298678,-110.911316,12SWA 08355 65918,100,100,221.9,1,0,51.7,-32.4,-0.8,2.6,2.6,-2.1,2.1,0,112.32,0,0,0,1
1.9,1.4,66,-114,0,0,-75.20323775,0.5,762.5,-0.43,0.66,-2.12,4037,0:05:02,3557.3,2,356,242,,0,15:03:55,11:01:01,5/24/2022,32.2298678,-110.911316,12SWA 08355 65918,100,100,221.9,1,0,51.7,-32.4,-0.8,2.6,2.6,-2.1,2.1,0,112.35,0,0,0,1
1.9,1.3,66,-114,0,0,-75.20323775,0.6,762.6,0.05,0.66,-2.12,4057.6,0:05:03,3577.8,2,356,242,,0,15:03:55,11:01:02,5/24/2022,32.2298678,-110.911316,12SWA 08355 65918,100,100,221.9,1,0,51.7,-32.4,-0.8,2.6,2.6,-2.1,2.1,0,112.39,0,0,0,1
1.9,1.3,66,-114,0,0,-75.20323775,0.9,762.9,-0.42,0.66,-2.12,4078.2,0:05:04,3598.4,2,356,242,,0,15:03:55,11:01:03,5/24/2022,32.2298678,-110.911316,12SWA 08355 65918,100,100,221.9,1,0,51.7,-32.4,-0.8,2.6,2.6,-2.1,2.1,0,112.42,0,0,0,1
1.9,1.3,66,-114,0,0,-75.20323775,0.7,762.7,-0.85,0.66,-2.12,4114,0:05:05,3634,2,356,242,,0,15:03:55,11:01:04,5/24/2022,32.2298678,-110.911316,12SWA 08355 65918,100,100,221.9,1,0,51.7,-32.4,-0.8,2.6,2.6,-2.1,2.1,0,112.44,0,0,0,1
1.9,1.3,66,-114,0,0,-75.20323775,0.3,762.3,-0.79,0.66,-2.12,4135.1,0:05:06,3655,2,356,242,,0,15:03:55,11:01:05,5/24/2022,32.2298678,-110.911316,12SWA 08355 65918,100,100,221.9,1,0,51.7,-32.4,-0.8,2.6,2.6,-2.1,2.1,0,112.5,0,0,0,1
1.9,1.3,66,-114,0,0,-75.20323775,0.2,762.2,-0.48,0.66,-2.12,4155.7,0:05:08,3675.6,2,356,242,,0,15:03:55,11:01:06,5/24/2022,32.2298678,-110.911316,12SWA 08355 65918,100,100,221.9,1,0,51.7,-32.4,-0.8,2.6,2.6,-2.1,2.1,0,112.53,0,0,0,1
1.9,1.3,66,-114,0,0,-75.20323775,0.3,762.3,0.08,0.66,-2.12,4191,0:05:09,3710.8,2,356,242,,0,15:03:55,11:01:07,5/24/2022,32.2298678,-110.911316,12SWA 08355 65918,100,100,221.9,1,0,51.7,-32.4,-0.8,2.6,2.6,-2.1,2.1,0,112.53,0,0,0,1
1.9,1.3,66,-114,0,0,-75.20323775,0.3,762.2,-1.15,0.66,-2.12,4212.6,0:05:10,3732.3,2,356,242,,0,15:03:55,11:01:08,5/24/2022,32.2298678,-110.911316,12SWA 08355 65918,100,100,221.9,1,0,51.7,-32.4,-0.8,2.6,2.6,-2.1,2.1,0,112.57,0,0,0,1
1.9,1.3,66,-114,0,0,-75.20323775,0.5,762.5,-0.27,0.66,-2.12,4233.7,0:05:11,3753.3,2,356,242,,0,15:03:55,11:01:09,5/24/2022,32.2298678,-110.911316,12SWA 08355 65918,100,100,221.9,1,0,51.7,-32.4,-0.8,2.6,2.6,-2.1,2.1,0,112.6,0,0,0,1
1.9,1.3,66,-114,0,0,-75.20323775,-0.1,761.9,-0.5,0.66,-2.12,4254.7,0:05:12,3774.3,2,356,242,,0,15:03:55,11:01:10,5/24/2022,32.2298678,-110.911316,12SWA 08355 65918,100,100,221.9,1,0,51.7,-32.4,-0.8,2.6,2.6,-2.1,2.1,0,112.62,0,0,0,1
1.9,1.3,66,-114,0,0,-75.20323775,0,762,-0.7,0.66,-2.12,4290.5,0:05:13,3810,2,356,242,,0,15:03:55,11:01:11,5/24/2022,32.2298678,-110.911316,12SWA 08355 65918,100,100,221.9,1,0,51.7,-32.4,-0.8,2.6,2.6,-2.1,2.1,0,112.62,0,0,0,1
1.9,1.3,66,-114,0,0,-75.20323775,0.4,762.4,-0.8,0.66,-2.12,4311.6,0:05:14,3831,2,356,242,,0,15:03:55,11:01:12,5/24/2022,32.2298678,-110.911316,12SWA 08355 65918,100,100,221.9,1,0,51.7,-32.4,-0.8,2.6,2.6,-2.1,2.1,0,112.66,0,0,0,1
1.9,1.3,66,-114,0,0,-75.20323775,0.5,762.5,-0.13,0.66,-2.12,4332.2,0:05:15,3851.5,2,356,242,,0,15:03:55,11:01:13,5/24/2022,32.2298678,-110.911316,12SWA 08355 65918,100,100,221.9,1,0,51.7,-32.4,-0.8,2.6,2.6,-2.1,2.1,0,112.68,0,0,0,1
1.9,1.3,66,-114,0,0,-75.20323775,-0.1,761.8,-0.93,0.66,-2.12,4358.7,0:05:16,3877.9,2,356,242,,0,15:03:55,11:01:14,5/24/2022,32.2298678,-110.911316,12SWA 08355 65918,100,100,221.9,1,0,51.7,-32.4,-0.8,2.6,2.6,-2.1,2.1,0,112.71,0,0,0,1
1.9,1.2,66,-114,0,0,-75.20323775,0,762,-0.73,0.66,-2.12,4379.8,0:05:17,3899,2,356,242,,0,15:03:55,11:01:15,5/24/2022,32.2298678,-110.911316,12SWA 08355 65918,100,100,221.9,1,0,51.7,-32.4,-0.8,2.6,2.6,-2.1,2.1,0,112.69,0,0,0,1
1.9,1.2,66,-114,0,0,-75.20323775,0.9,762.9,-0.73,0.66,-2.12,4400.4,0:05:18,3919.5,2,356,242,,0,15:03:55,11:01:16,5/24/2022,32.2298678,-110.911316,12SWA 08355 65918,100,100,221.9,1,0,51.7,-32.4,-0.8,2.6,2.6,-2.1,2.1,0,112.75,0,0,0,1
1.9,1.2,66,-114,0,0,-75.20323775,1.1,763,0.28,0.66,-2.12,4436.7,0:05:19,3955.7,2,356,242,,0,15:03:55,11:01:17,5/24/2022,32.2298678,-110.911316,12SWA 08355 65918,100,100,221.9,1,0,51.7,-32.4,-0.8,2.6,2.6,-2.1,2.1,0,112.75,0,0,0,1
1.9,1.2,66,-114,0,0,-75.20323775,0.5,762.4,-0.79,0.66,-2.12,4457.8,0:05:20,3976.7,2,356,242,,0,15:03:55,11:01:18,5/24/2022,32.2298678,-110.911316,12SWA 08355 65918,100,100,221.9,1,0,51.7,-32.4,-0.8,2.6,2.6,-2.1,2.1,0,112.75,0,0,0,1
1.9,1.2,66,-114,0,0,-75.20323775,0.3,762.3,-0.1,0.66,-2.12,4478.4,0:05:21,3997.2,2,356,242,,0,15:03:55,11:01:19,5/24/2022,32.2298678,-110.911316,12SWA 08355 65918,100,100,221.9,1,0,51.7,-32.4,-0.8,2.6,2.6,-2.1,2.1,0,112.8,0,0,0,1
1.9,1.1,66,-114,0,0,-75.20323775,0.1,762.1,0.14,0.66,-2.12,4498.9,0:05:22,4017.7,2,356,242,,0,15:03:55,11:01:20,5/24/2022,32.2298678,-110.911316,12SWA 08355 65918,100,100,221.9,1,0,51.7,-32.4,-0.8,2.6,2.6,-2.1,2.1,0,112.8,0,0,0,1
1.9,1.1,66,-114,0,0,-75.20323775,0.5,762.4,-0.31,0.66,-2.12,4535.7,0:05:23,4054.4,2,356,242,,0,15:03:55,11:01:21,5/24/2022,32.2298678,-110.911316,12SWA 08355 65918,100,100,221.9,1,0,51.7,-32.4,-0.8,2.6,2.6,-2.1,2.1,0,112.84,0,0,0,1
1.9,1.1,67,-113,1,0,-75.20323775,0.1,762,-0.63,0.66,-2.12,4545.5,0:05:24,4064.2,2,356,242,,0,15:03:55,11:01:22,5/24/2022,32.2298678,-110.911316,12SWA 08355 65918,100,100,221.9,1,0,51.7,-32.4,-0.8,2.6,2.6,-2.1,2.1,0,112.84,0,0,0,1
2.6,2.3,346,166,279,0.9,-49.38425679,0.5,762.5,-0.25,-0.27,-0.653,8695.3,0:06:53,16.4,4,6,181,,35,15:03:55,11:02:51,5/24/2022,32.23125,-110.9079429,12SWA 08673 66072,16.5,1,356.4,2,3,26.8,-0.8,-0.4,0.9,0.9,0.2,0.2,-0.2,111.22,1.3,1.1,2.4,1
-3.1,5.7,344,164,-2,0.9,-40.06623251,0.5,762.5,-0.23,-0.26,-0.471,8695.3,0:06:54,17.3,4,6,181,,38,15:03:55,11:02:52,5/24/2022,32.2312542,-110.9079439,12SWA 08673 66072,19.5,22,356.4,3,4,27.7,-0.7,-0.4,1,1,0,0,-0.1,111.18,1.9,1.1,2.2,1
-1.2,2.7,342,162,-2,1,-29.89890184,0.6,762.6,-0.16,-0.2,-0.322,8697.6,0:06:55,18.5,4,6,181,,42,15:03:55,11:02:53,5/24/2022,32.2312589,-110.9079524,12SWA 08672 66073,19.4,21.9,356.4,3,4,28.9,-0.7,-0.5,0.8,0.8,0,0,0,111.16,1.2,1,1.9,1
0.8,2.4,339,159,-3,1,-20.37643521,0.7,762.6,-0.12,-0.12,-0.208,8697.6,0:06:56,19.4,4,6,180,,40,15:03:55,11:02:54,5/24/2022,32.2312589,-110.9079524,12SWA 08672 66073,19.4,21.9,356.4,3,4,29.8,-0.8,-0.5,1.1,1.1,-0.1,0.1,0,111.16,1.7,1.1,2,1
-3,3.9,339,159,0,1.2,-21.00322271,0.8,762.7,0.02,-0.06,-0.215,8699.9,0:06:57,20.8,4,6,180,,36,15:03:55,11:02:55,5/24/2022,32.2312892,-110.9079569,12SWA 08672 66076,19.3,21.7,352.4,3,4,31.2,-1.1,-0.7,1.1,1.1,0,0,-0.1,111.11,1.8,1.8,3.6,1
0.3,1.1,340,160,1,1.3,-28.17859011,0.9,762.8,0.06,0.08,-0.3,8702.5,0:06:58,22.5,4,6,179,,32,15:03:55,11:02:56,5/24/2022,32.2313086,-110.9079602,12SWA 08671 66078,100,100,348.3,1,0,32.9,-1.5,-0.7,1.3,1.3,0.1,0.1,0,111.09,1.9,1.2,2.2,1
0.7,3.3,349,169,9,1.1,-59.58697663,0.8,762.8,0.01,0.05,-0.954,8707.3,0:07:00,27.9,4,6,177,,31,15:03:55,11:02:58,5/24/2022,32.2313541,-110.9079693,12SWA 08670 66083,100,100,354.1,1,0,38.2,-2.6,-0.7,1,1,0.4,0.4,-0.1,111.02,1.8,0.9,3,1
0.2,2.2,349,169,0,1,-33.02386756,1,763,0.19,0.25,-0.364,8716,0:07:06,37.8,4,6,176,,35,15:03:55,11:03:05,5/24/2022,32.2314319,-110.9079779,12SWA 08670 66092,100,100,353.1,1,0,48.2,-3.5,-0.9,0.9,0.9,0.3,0.3,-0.1,110.84,3,1.6,3.3,1
3.6,3.5,341,161,-8,0.9,-11.70290148,0.9,762.9,0.1,0.1,-0.116,8718.4,0:07:07,38.6,4,6,177,,39,15:03:55,11:03:06,5/24/2022,32.2314451,-110.9079952,12SWA 08668 66093,100,100,353.1,1,0,49,-3.2,-0.8,0.9,0.9,0.1,0.1,-0.1,110.79,1.8,1,2,1
-0.7,3,25,-155,-316,1.3,-35.06062965,0.6,762.6,-0.14,-0.16,-0.393,8721.3,0:07:10,42.6,5,48,178,,32,15:03:55,11:03:09,5/24/2022,32.2314965,-110.9079978,12SWA 08668 66099,100,100,350.4,1,0,53,-2.4,-0.5,0.5,0.5,1.2,1.2,-0.1,110.75,2,1.3,2.8,1
-0.1,3.6,13,-167,-12,1.1,-17.16741309,0.6,762.6,-0.2,-0.17,-0.173,8723.8,0:07:11,43,5,48,180,,40,15:03:55,11:03:10,5/24/2022,32.2315135,-110.9079935,12SWA 08668 66101,100,100,350.4,1,0,53.5,-1.3,-0.5,0.5,0.5,1,1,-0.2,110.71,1.7,1.3,2.2,1
-4.1,5.1,12,-168,-1,1.3,-5.305109606,0.6,762.6,-0.06,-0.12,-0.052,8723.8,0:07:12,43.5,5,48,181,,42,15:03:55,11:03:11,5/24/2022,32.2315305,-110.9079893,12SWA 08668 66103,100,100,350.4,1,0,53.9,-0.4,-0.5,0.6,0.6,1.1,1.1,-0.1,110.7,2.8,2.1,4.2,1
-2.9,4.6,13,-167,1,1.4,7.125016349,0.8,762.8,0.03,0,0.07,8725.9,0:07:13,44.4,5,48,183,,41,15:03:55,11:03:12,5/24/2022,32.231539,-110.9079872,12SWA 08669 66104,100,100,350.4,1,0,54.5,0.6,-0.7,0.6,0.6,1,1,-0.2,110.68,3.2,2.1,3.6,1
-10.4,3.9,97,-83,84,3.2,60.48022374,0.8,762.8,0.05,0.03,0.989,8728.7,0:07:14,44.6,6,91,185,,0,15:03:55,11:03:13,5/24/2022,32.2315475,-110.9079851,12SWA 08669 66105,100,100,350.4,1,0,54.9,2.8,-0.7,-1.6,1.6,2.3,2.3,-0.2,110.62,4.4,3,6.1,1
1.9,4,138,-42,41,2.5,-58.08062921,0.7,762.7,-0.06,-0.06,-0.899,8731.4,0:07:15,42.3,6,91,187,,19,15:03:55,11:03:14,5/24/2022,32.2315143,-110.9078877,12SWA 08678 66101,2.4,1,350.4,2,3,52.4,4,-0.6,-2.6,2.6,0.4,0.4,-0.1,110.55,0.3,0.3,0.3,1
-4.6,5.7,145,-35,7,0,56.52903573,0.9,762.9,0.12,-0.09,0.847,8739.6,0:07:16,45.3,6,91,188,,0,15:03:55,11:03:15,5/24/2022,32.2315162,-110.9078541,12SWA 08681 66101,100,100,350.4,1,0,49.9,4.1,-0.6,-2.8,2.8,0,0,-0.1,110.53,0.1,0,0,1
-4,5.6,148,-32,3,0,52.39334022,-0.2,761.8,-0.27,-0.65,0.727,8739.6,0:07:17,44.1,6,91,189,,0,15:03:55,11:03:16,5/24/2022,32.2315183,-110.9078148,12SWA 08685 66101,100,100,350.4,1,0,49.9,4.1,-0.6,-2.8,2.8,0,0,-0.1,110.5,0.1,0,0.1,1
-3.3,5.5,150,-30,2,0,52.39334022,0.4,762.4,0.06,-0.65,0.727,8741.8,0:07:18,43.1,6,91,190,,0,15:03:55,11:03:17,5/24/2022,32.2315193,-110.907798,12SWA 08687 66102,100,100,350.4,1,0,49.9,4.1,-0.6,-2.8,2.8,0,0,-0.1,110.46,0,0,0,1
-2.8,5.4,153,-27,3,0,52.39334022,0.1,762.1,-0.65,-0.65,0.727,8741.8,0:07:19,42.1,6,91,191,,0,15:03:55,11:03:18,5/24/2022,32.2315211,-110.9077644,12SWA 08690 66102,100,100,350.4,1,0,49.9,4.1,-0.6,-2.8,2.8,0,0,-0.1,110.44,0,0,0,1
-2.4,5.2,155,-25,2,0,52.39334022,0,762,-0.86,-0.65,0.727,8744.7,0:07:20,40.8,6,91,193,,0,15:03:55,11:03:19,5/24/2022,32.231523,-110.9077307,12SWA 08693 66102,100,100,350.4,1,0,49.9,4.1,-0.6,-2.8,2.8,0,0,-0.1,110.44,0,0,0,1
-2,5.1,157,-23,2,0,52.39334022,0.1,762.1,-1.52,-0.65,0.727,8747.3,0:07:21,39.2,6,91,194,,0,15:03:55,11:03:20,5/24/2022,32.2315239,-110.9077139,12SWA 08694 66102,100,100,350.4,1,0,49.9,4.1,-0.6,-2.8,2.8,0,0,-0.1,110.43,0,0,0,1
-1.8,5,158,-22,1,0,52.39334022,0,762,-0.18,-0.65,0.727,8747.3,0:07:22,38.2,6,91,195,,0,15:03:55,11:03:21,5/24/2022,32.2315257,-110.9076803,12SWA 08698 66102,100,100,350.4,1,0,49.9,4.1,-0.6,-2.8,2.8,0,0,-0.1,110.43,0,0,0,1
-1.7,4.8,160,-20,2,0,52.39334022,0.2,762.2,-0.67,-0.65,0.727,8749.5,0:07:23,36.8,6,91,197,,0,15:03:55,11:03:22,5/24/2022,32.2315269,-110.9076579,12SWA 08700 66102,100,100,350.4,1,0,49.9,4.1,-0.6,-2.8,2.8,0,0,-0.1,110.41,0,0,0,1
-1.5,4.7,161,-19,1,0,52.39334022,-0.1,761.9,-0.58,-0.65,0.727,8749.5,0:07:24,35.8,6,91,198,,0,15:03:55,11:03:23,5/24/2022,32.2315288,-110.9076243,12SWA 08703 66103,100,100,350.4,1,0,49.9,4.1,-0.6,-2.8,2.8,0,0,-0.1,110.44,0,0,0,1
-1.4,4.6,162,-18,1,0,52.39334022,0,762,-0.58,-0.65,0.727,8752.1,0:07:25,34.8,6,91,199,,0,15:03:55,11:03:24,5/24/2022,32.23153,-110.9076018,12SWA 08705 66103,100,100,350.4,1,0,49.9,4.1,-0.6,-2.8,2.8,0,0,-0.1,110.46,0,0,0,1
-1.3,4.6,162,-18,0,0,52.39334022,0.1,762.1,0.04,-0.65,0.727,8752.1,0:07:26,33.8,6,91,201,,0,15:03:55,11:03:25,5/24/2022,32.23153,-110.9076018,12SWA 08705 66103,100,100,350.4,1,0,49.9,4.1,-0.6,-2.8,2.8,0,0,-0.1,110.48,0,0,0,1
-1.2,4.5,163,-17,1,0,52.39334022,0,762,-0.63,-0.65,0.727,8755,0:07:27,31.9,6,91,203,,0,15:03:55,11:03:26,5/24/2022,32.23153,-110.9076018,12SWA 08705 66103,100,100,350.4,1,0,49.9,4.1,-0.6,-2.8,2.8,0,0,-0.1,110.5,0,0,0,1
-1.1,4.4,164,-16,1,0,52.39334022,-0.3,761.7,-0.42,-0.65,0.727,8757,0:07:28,30.9,6,91,205,,0,15:03:55,11:03:27,5/24/2022,32.23153,-110.9076018,12SWA 08705 66103,100,100,350.4,1,0,49.9,4.1,-0.6,-2.8,2.8,0,0,-0.1,110.52,0,0,0,1
-1,4.4,164,-16,0,0,52.39334022,-0.6,761.4,-0.49,-0.65,0.727,8757,0:07:29,30,6,91,206,,0,15:03:55,11:03:28,5/24/2022,32.23153,-110.9076018,12SWA 08705 66103,100,100,350.4,1,0,49.9,4.1,-0.6,-2.8,2.8,0,0,-0.1,110.5,0,0,0,1
-1,4.3,165,-15,1,0,52.39334022,1.1,763.1,-1.14,-0.65,0.727,8759.6,0:07:30,28.3,6,91,209,,0,15:03:55,11:03:29,5/24/2022,32.23153,-110.9076018,12SWA 08705 66103,100,100,350.4,1,0,49.9,4.1,-0.6,-2.8,2.8,0,0,-0.1,110.55,0,0,0,1
-1,4.3,165,-15,0,0,52.39334022,0.2,762.1,-0.55,-0.65,0.727,8761.8,0:07:31,27.4,6,91,211,,0,15:03:55,11:03:30,5/24/2022,32.23153,-110.9076018,12SWA 08705 66103,100,100,350.4,1,0,49.9,4.1,-0.6,-2.8,2.8,0,0,-0.1,110.55,0,0,0,1
-0.9,4.3,165,-15,0,0,52.39334022,0.4,762.3,-0.14,-0.65,0.727,8763.8,0:07:32,26.4,6,91,213,,0,15:03:55,11:03:31,5/24/2022,32.23153,-110.9076018,12SWA 08705 66103,100,100,350.4,1,0,49.9,4.1,-0.6,-2.8,2.8,0,0,-0.1,110.59,0,0,0,1
-0.9,4.3,165,-15,0,0,52.39334022,0.9,762.9,-1.05,-0.65,0.727,8763.8,0:07:33,25.6,6,91,215,,0,15:03:55,11:03:32,5/24/2022,32.23153,-110.9076018,12SWA 08705 66103,100,100,350.4,1,0,49.9,4.1,-0.6,-2.8,2.8,0,0,-0.1,110.61,0,0,0,1
-0.8,4.3,166,-14,1,0,52.39334022,0.1,762.1,-0.76,-0.65,0.727,8766.7,0:07:34,24.6,6,91,218,,0,15:03:55,11:03:33,5/24/2022,32.23153,-110.9076018,12SWA 08705 66103,100,100,350.4,1,0,49.9,4.1,-0.6,-2.8,2.8,0,0,-0.1,110.61,0,0,0,1
-0.8,4.3,166,-14,0,0,52.39334022,1.1,763,0.3,-0.65,0.727,8766.7,0:07:35,23.4,6,91,222,,0,15:03:55,11:03:34,5/24/2022,32.23153,-110.9076018,12SWA 08705 66103,100,100,350.4,1,0,49.9,4.1,-0.6,-2.8,2.8,0,0,-0.1,110.64,0,0,0,1
-0.8,4.3,166,-14,0,0,52.39334022,0.5,762.5,-0.27,-0.65,0.727,8769.3,0:07:36,22.7,6,91,225,,0,15:03:55,11:03:35,5/24/2022,32.23153,-110.9076018,12SWA 08705 66103,100,100,350.4,1,0,49.9,4.1,-0.6,-2.8,2.8,0,0,-0.1,110.64,0,0,0,1
-0.8,4.3,166,-14,0,0,52.39334022,0.8,762.8,-0.5,-0.65,0.727,8769.3,0:07:37,22,6,91,227,,0,15:03:55,11:03:36,5/24/2022,32.23153,-110.9076018,12SWA 08705 66103,100,100,350.4,1,0,49.9,4.1,-0.6,-2.8,2.8,0,0,-0.1,110.68,0,0,0,1
-0.7,4.2,166,-14,0,0,52.39334022,0.8,762.8,-0.57,-0.65,0.727,8771.9,0:07:38,21.3,6,91,231,,0,15:03:55,11:03:37,5/24/2022,32.23153,-110.9076018,12SWA 08705 66103,100,100,350.4,1,0,49.9,4.1,-0.6,-2.8,2.8,0,0,-0.1,110.7,0,0,0,1
-0.7,4.2,166,-14,0,0,52.39334022,0.6,762.5,-0.84,-0.65,0.727,8774.2,0:07:39,20.7,6,91,235,,0,15:03:55,11:03:38,5/24/2022,32.23153,-110.9076018,12SWA 08705 66103,100,100,350.4,1,0,49.9,4.1,-0.6,-2.8,2.8,0,0,-0.1,110.71,0,0,0,1
-0.7,4.2,166,-14,0,0,52.39334022,0.7,762.7,-0.98,-0.65,0.727,8774.2,0:07:40,20.1,6,91,240,,0,15:03:55,11:03:39,5/24/2022,28.6409674,-118.5183888,11RLM 51591 69151,100,100,350.4,1,0,49.9,4.1,-0.6,-2.8,2.8,0,0,-0.1,110.73,0,0,0,1
-0.6,4.2,166,-14,0,0,52.39334022,-0.2,761.8,-0.93,-0.65,0.727,8776.7,0:07:41,19.7,6,91,244,,0,15:03:55,11:03:40,5/24/2022,28.6409674,-118.5183888,11RLM 51591 69151,100,100,350.4,1,0,49.9,4.1,-0.6,-2.8,2.8,0,0,-0.1,110.77,0,0,0,1
-0.6,4.2,166,-14,0,0,52.39334022,0.5,762.5,-0.63,-0.65,0.727,8779,0:07:42,19.4,6,91,248,,0,15:03:55,11:03:41,5/24/2022,28.6409674,-118.5183888,11RLM 51591 69151,100,100,350.4,1,0,49.9,4.1,-0.6,-2.8,2.8,0,0,-0.1,110.79,0,0,0,1
-0.6,4.2,166,-14,0,0,52.39334022,0,762,0.45,-0.65,0.727,8779,0:07:43,19.3,6,91,252,,0,15:03:55,11:03:42,5/24/2022,28.6409674,-118.5183888,11RLM 51591 69151,100,100,350.4,1,0,49.9,4.1,-0.6,-2.8,2.8,0,0,-0.1,110.8,0,0,0,1
-0.6,4.2,167,-13,1,0,52.39334022,0.2,762.1,-0.87,-0.65,0.727,8781.6,0:07:44,19.2,6,91,255,,0,15:03:55,11:03:43,5/24/2022,28.8259711,-118.560244,11RLM 47768 89704,100,100,350.4,1,0,49.9,4.1,-0.6,-2.8,2.8,0,0,-0.1,110.86,0,0,0,1
-0.6,4.2,167,-13,0,0,52.39334022,0.8,762.7,-1.12,-0.65,0.727,8783.8,0:07:45,19.3,6,91,262,,0,15:03:55,11:03:44,5/24/2022,28.8259711,-118.560244,11RLM 47768 89704,100,100,350.4,1,0,49.9,4.1,-0.6,-2.8,2.8,0,0,-0.1,110.89,0,0,0,1
-0.6,4.2,167,-13,0,0,52.39334022,0,761.9,-0.94,-0.65,0.727,8783.8,0:07:46,19.4,6,91,266,,0,15:03:55,11:03:45,5/24/2022,28.8259711,-118.560244,11RLM 47768 89704,100,100,350.4,1,0,49.9,4.1,-0.6,-2.8,2.8,0,0,-0.1,110.93,0,0,0,1
-0.6,4.2,167,-13,0,0,52.39334022,0.5,762.5,-1.49,-0.65,0.727,8786.4,0:07:47,19.6,6,91,270,,0,15:03:55,11:03:46,5/24/2022,28.8259711,-118.560244,11RLM 47768 89704,100,100,350.4,1,0,49.9,4.1,-0.6,-2.8,2.8,0,0,-0.1,110.95,0,0,0,1
-0.5,4.1,167,-13,0,0,52.39334022,-0.2,761.8,-0.5,-0.65,0.727,8786.4,0:07:48,20,6,91,274,,0,15:03:55,11:03:47,5/24/2022,28.6284274,-118.4844449,11RLM 54892 67720,100,100,350.4,1,0,49.9,4.1,-0.6,-2.8,2.8,0,0,-0.1,111,0,0,0,1
-0.5,4.1,167,-13,0,0,52.39334022,0.3,762.2,0.05,-0.65,0.727,8788.7,0:07:49,20.5,6,91,277,,0,15:03:55,11:03:48,5/24/2022,28.6284274,-118.4844449,11RLM 54892 67720,100,100,350.4,1,0,49.9,4.1,-0.6,-2.8,2.8,0,0,-0.1,111.06,0,0,0,1
-0.5,4.1,167,-13,0,0,52.39334022,0.1,762,-1.1,-0.65,0.727,8791.3,0:07:50,21.2,6,91,282,,0,15:03:55,11:03:49,5/24/2022,28.6284274,-118.4844449,11RLM 54892 67720,100,100,350.4,1,0,49.9,4.1,-0.6,-2.8,2.8,0,0,-0.1,111.06,0,0,0,1
-0.4,4.1,167,-13,0,0,52.39334022,0.5,762.5,-0.98,-0.65,0.727,8791.3,0:07:51,21.9,6,91,286,,0,15:03:55,11:03:50,5/24/2022,28.6284274,-118.4844449,11RLM 54892 67720,100,100,350.4,1,0,49.9,4.1,-0.6,-2.8,2.8,0,0,-0.1,111.11,0,0,0,1
-0.4,4.1,167,-13,0,0,52.39334022,-0.7,761.3,-1.37,-0.65,0.727,8793.4,0:07:52,22.6,6,91,289,,0,15:03:55,11:03:51,5/24/2022,28.528059,-118.4357837,11RLM 59516 56541,100,100,350.4,1,0,49.9,4.1,-0.6,-2.8,2.8,0,0,-0.1,111.15,0,0,0,1
-0.4,4.1,167,-13,0,0,52.39334022,0,762,-1.07,-0.65,0.727,8796.3,0:07:53,23.8,6,91,294,,0,15:03:55,11:03:52,5/24/2022,28.528059,-118.4357837,11RLM 59516 56541,100,100,350.4,1,0,49.9,4.1,-0.6,-2.8,2.8,0,0,-0.1,111.2,0,0,0,1
-0.4,4.1,166,-14,-1,0,52.39334022,-0.6,761.4,-0.59,-0.65,0.727,8796.3,0:07:54,24.6,6,91,296,,0,15:03:55,11:03:53,5/24/2022,28.528059,-118.4357837,11RLM 59516 56541,100,100,350.4,1,0,49.9,4.1,-0.6,-2.8,2.8,0,0,-0.1,111.24,0,0,0,1
-0.3,4.1,166,-14,0,0,52.39334022,-0.3,761.7,-0.88,-0.65,0.727,8798.9,0:07:55,25.4,6,91,298,,0,15:03:55,11:03:54,5/24/2022,28.528059,-118.4357837,11RLM 59516 56541,100,100,350.4,1,0,49.9,4.1,-0.6,-2.8,2.8,0,0,-0.1,111.25,0,0,0,1
-0.3,4.1,166,-14,0,0,52.39334022,-0.1,761.9,-0.96,-0.65,0.727,8798.9,0:07:56,26.3,6,91,300,,0,15:03:55,11:03:55,5/24/2022,28.528059,-118.4357837,11RLM 59516 56541,100,100,350.4,1,0,49.9,4.1,-0.6,-2.8,2.8,0,0,-0.1,111.29,0,0,0,1
-0.2,4,166,-14,0,0,52.39334022,0.4,762.4,-1.67,-0.65,0.727,8801.1,0:07:57,27.4,6,91,303,,0,15:03:55,11:03:56,5/24/2022,28.6701779,-118.2626126,11RLM 76627 72097,100,100,350.4,1,0,49.9,4.1,-0.6,-2.8,2.8,0,0,-0.1,111.33,0,0,0,1
-0.2,4,166,-14,0,0,52.39334022,-0.6,761.4,-1.35,-0.65,0.727,8803.7,0:07:58,28.9,6,91,305,,0,15:03:55,11:03:57,5/24/2022,28.6701779,-118.2626126,11RLM 76627 72097,100,100,350.4,1,0,49.9,4.1,-0.6,-2.8,2.8,0,0,-0.1,111.38,0,0,0,1
-0.2,4,166,-14,0,0,52.39334022,-0.9,761.1,-1.63,-0.65,0.727,8803.7,0:07:59,29.8,6,91,307,,0,15:03:55,11:03:58,5/24/2022,28.6701779,-118.2626126,11RLM 76627 72097,100,100,350.4,1,0,49.9,4.1,-0.6,-2.8,2.8,0,0,-0.1,111.43,0,0,0,1
-0.2,4,166,-14,0,0,52.39334022,-0.3,761.7,-1.03,-0.65,0.727,8806.7,0:08:00,31.1,6,91,309,,0,15:03:55,11:03:59,5/24/2022,28.6701779,-118.2626126,11RLM 76627 72097,100,100,350.4,1,0,49.9,4.1,-0.6,-2.8,2.8,0,0,-0.1,111.45,0,0,0,1
-0.2,4,166,-14,0,0,52.39334022,0.3,762.3,-0.2,-0.65,0.727,8806.7,0:08:01,32.1,6,91,310,,0,15:03:55,11:04:00,5/24/2022,28.4781403,-118.196593,11RLM 82866 50753,100,100,350.4,1,0,49.9,4.1,-0.6,-2.8,2.8,0,0,-0.1,111.47,0,0,0,1
-0.2,4,166,-14,0,0,52.39334022,-0.4,761.5,-0.8,-0.65,0.727,8809.2,0:08:02,33.7,6,91,312,,0,15:03:55,11:04:01,5/24/2022,28.4781403,-118.196593,11RLM 82866 50753,100,100,350.4,1,0,49.9,4.1,-0.6,-2.8,2.8,0,0,-0.1,111.49,0,0,0,1
-0.2,4,166,-14,0,0,52.39334022,0.3,762.3,-0.52,-0.65,0.727,8809.2,0:08:03,34.8,6,91,314,,0,15:03:55,11:04:02,5/24/2022,28.4781403,-118.196593,11RLM 82866 50753,100,100,350.4,1,0,49.9,4.1,-0.6,-2.8,2.8,0,0,-0.1,111.52,0,0,0,1
-0.2,4,166,-14,0,0,52.39334022,-0.3,761.6,-1.11,-0.65,0.727,8812.2,0:08:04,36.2,6,91,315,,0,15:03:55,11:04:03,5/24/2022,28.4781403,-118.196593,11RLM 82866 50753,100,100,350.4,1,0,49.9,4.1,-0.6,-2.8,2.8,0,0,-0.1,111.52,0,0,0,1
-0.2,4,166,-14,0,0,52.39334022,0.5,762.5,-0.94,-0.65,0.727,8812.2,0:08:05,37.3,6,91,316,,0,15:03:55,11:04:04,5/24/2022,29.1582859,-118.112623,11RLN 91792 26034,100,100,350.4,1,0,49.9,4.1,-0.6,-2.8,2.8,0,0,-0.1,111.54,0,0,0,1
-0.2,4,166,-14,0,0,52.39334022,0.5,762.5,-0.55,-0.65,0.727,8814.7,0:08:06,38.4,6,91,317,,0,15:03:55,11:04:05,5/24/2022,29.1582859,-118.112623,11RLN 91792 26034,100,100,350.4,1,0,49.9,4.1,-0.6,-2.8,2.8,0,0,-0.1,111.58,0,0,0,1
-0.1,4,166,-14,0,0,52.39334022,0.1,762.1,-0.56,-0.65,0.727,8817.6,0:08:07,40.4,6,91,319,,0,15:03:55,11:04:06,5/24/2022,29.1582859,-118.112623,11RLN 91792 26034,100,100,350.4,1,0,49.9,4.1,-0.6,-2.8,2.8,0,0,-0.1,111.6,0,0,0,1
-0.1,4,166,-14,0,0,52.39334022,0.4,762.4,-0.5,-0.65,0.727,8817.6,0:08:08,41.5,6,91,319,,0,15:03:55,11:04:07,5/24/2022,29.1582859,-118.112623,11RLN 91792 26034,100,100,350.4,1,0,49.9,4.1,-0.6,-2.8,2.8,0,0,-0.1,111.6,0,0,0,1
-0.1,4,166,-14,0,0,52.39334022,0.3,762.2,-0.74,-0.65,0.727,8820.2,0:08:09,42.7,6,91,320,,0,15:03:55,11:04:08,5/24/2022,28.9065111,-117.9344692,11RMM 08898 97987,100,100,350.4,1,0,49.9,4.1,-0.6,-2.8,2.8,0,0,-0.1,111.61,0,0,0,1
-0.1,4,166,-14,0,0,52.39334022,0.7,762.7,-0.7,-0.65,0.727,8820.2,0:08:11,43.9,6,91,321,,0,15:03:55,11:04:09,5/24/2022,28.9065111,-117.9344692,11RMM 08898 97987,100,100,350.4,1,0,49.9,4.1,-0.6,-2.8,2.8,0,0,-0.1,111.67,0,0,0,1
-0.1,4,166,-14,0,0,52.39334022,0.1,762.1,-1.14,-0.65,0.727,8822.5,0:08:12,45.9,6,91,322,,0,15:03:55,11:04:10,5/24/2022,28.9065111,-117.9344692,11RMM 08898 97987,100,100,350.4,1,0,49.9,4.1,-0.6,-2.8,2.8,0,0,-0.1,111.67,0,0,0,1
-0.1,4.1,166,-14,0,0,52.39334022,0.3,762.2,-0.72,-0.65,0.727,8825.1,0:08:13,47.1,6,91,323,,0,15:03:55,11:04:11,5/24/2022,28.9065111,-117.9344692,11RMM 08898 97987,100,100,350.4,1,0,49.9,4.1,-0.6,-2.8,2.8,0,0,-0.1,111.69,0,0,0,1
-0.1,4.1,166,-14,0,0,52.39334022,0.7,762.6,-0.65,-0.65,0.727,8825.1,0:08:14,48.3,6,91,323,,0,15:03:55,11:04:12,5/24/2022,28.9065111,-117.9344692,11RMM 08898 97987,100,100,350.4,1,0,49.9,4.1,-0.6,-2.8,2.8,0,0,-0.1,111.76,0,0,0,1
-0.1,4,166,-14,0,0,52.39334022,0,762,-0.57,-0.65,0.727,8827.7,0:08:15,49.5,6,91,324,,0,15:03:55,11:04:13,5/24/2022,28.5700562,-118.1184208,11RLM 90614 60863,100,100,350.4,1,0,49.9,4.1,-0.6,-2.8,2.8,0,0,-0.1,111.78,0,0,0,1
-0.1,4,166,-14,0,0,52.39334022,0.1,762.1,-0.65,-0.65,0.727,8830,0:08:16,51.6,6,91,325,,0,15:03:55,11:04:14,5/24/2022,28.5700562,-118.1184208,11RLM 90614 60863,100,100,350.4,1,0,49.9,4.1,-0.6,-2.8,2.8,0,0,-0.1,111.83,0,0,0,1
-0.1,4,166,-14,0,0,52.39334022,0.7,762.7,-0.29,-0.65,0.727,8830,0:08:17,52.8,6,91,325,,0,15:03:55,11:04:15,5/24/2022,28.5700562,-118.1184208,11RLM 90614 60863,100,100,350.4,1,0,49.9,4.1,-0.6,-2.8,2.8,0,0,-0.1,111.87,0,0,0,1
-0.1,4.1,166,-14,0,0,52.39334022,-0.4,761.6,0.07,-0.65,0.727,8832.8,0:08:18,54.3,6,91,326,,0,15:03:55,11:04:16,5/24/2022,28.5700562,-118.1184208,11RLM 90614 60863,100,100,350.4,1,0,49.9,4.1,-0.6,-2.8,2.8,0,0,-0.1,111.88,0,0,0,1
-0.1,4.1,166,-14,0,0,52.39334022,0.1,762.1,-1.03,-0.65,0.727,8832.8,0:08:19,55.5,6,91,326,,0,15:03:55,11:04:17,5/24/2022,28.8233062,-117.9239147,11RMM 09856 88760,100,100,350.4,1,0,49.9,4.1,-0.6,-2.8,2.8,0,0,-0.1,111.9,0,0,0,1
-0.1,4.1,166,-14,0,0,52.39334022,0.6,762.6,-0.51,-0.65,0.727,8835.4,0:08:20,56.7,6,91,327,,0,15:03:55,11:04:18,5/24/2022,28.8233062,-117.9239147,11RMM 09856 88760,100,100,350.4,1,0,49.9,4.1,-0.6,-2.8,2.8,0,0,-0.1,111.96,0,0,0,1
-0.1,4.1,166,-14,0,0,52.39334022,0,762,-1.57,-0.65,0.727,8835.4,0:08:21,58.6,6,91,328,,0,15:03:55,11:04:19,5/24/2022,28.8233062,-117.9239147,11RMM 09856 88760,100,100,350.4,1,0,49.9,4.1,-0.6,-2.8,2.8,0,0,-0.1,111.97,0,0,0,1
-0.2,4.1,166,-14,0,0,52.39334022,0.5,762.5,-0.59,-0.65,0.727,8838.3,0:08:22,59.5,6,91,328,,0,15:03:55,11:04:20,5/24/2022,28.8233062,-117.9239147,11RMM 09856 88760,100,100,350.4,1,0,49.9,4.1,-0.6,-2.8,2.8,0,0,-0.1,112.01,0,0,0,1
-0.2,4.1,166,-14,0,0,52.39334022,-0.8,761.2,-0.99,-0.65,0.727,8838.3,0:08:23,61.4,6,91,328,,0,15:03:55,11:04:21,5/24/2022,28.955732,-118.081905,11RLN 94574 03563,100,100,350.4,1,0,49.9,4.1,-0.6,-2.8,2.8,0,0,-0.1,112.01,0,0,0,1
-0.2,4.1,166,-14,0,0,52.39334022,-0.4,761.6,-1.35,-0.65,0.727,8840.9,0:08:24,62.6,6,91,329,,0,15:03:55,11:04:22,5/24/2022,28.955732,-118.081905,11RLN 94574 03563,100,100,350.4,1,0,49.9,4.1,-0.6,-2.8,2.8,0,0,-0.1,112.06,0,0,0,1
-0.2,4.1,166,-14,0,0,52.39334022,0.3,762.3,-1.03,-0.65,0.727,8840.9,0:08:25,63.8,6,91,329,,0,15:03:55,11:04:23,5/24/2022,28.955732,-118.081905,11RLN 94574 03563,100,100,350.4,1,0,49.9,4.1,-0.6,-2.8,2.8,0,0,-0.1,112.1,0,0,0,1
-0.1,4.1,166,-14,0,0,52.39334022,0.2,762.1,-0.64,-0.65,0.727,8843.9,0:08:26,66,6,91,330,,0,15:03:55,11:04:24,5/24/2022,28.955732,-118.081905,11RLN 94574 03563,100,100,350.4,1,0,49.9,4.1,-0.6,-2.8,2.8,0,0,-0.1,112.12,0,0,0,1
-0.2,4.1,166,-14,0,0,52.39334022,0.2,762.2,-0.72,-0.65,0.727,8846.4,0:08:27,67.2,6,91,330,,0,15:03:55,11:04:25,5/24/2022,28.689463,-117.9268561,11RMM 09453 73933,100,100,350.4,1,0,49.9,4.1,-0.6,-2.8,2.8,0,0,-0.1,112.15,0,0,0,1
